     2.12           OBSERVATION DATA    M (MIXED)           RINEX VERSION / TYPE
JPS2RIN v.2.0.99    JAVAD GNSS          20150612 212700 UTC PGM / RUN BY / DATE 
filename                                                    MARKER NAME         
                                                            MARKER NUMBER       
-Unknown-           -Unknown-                               OBSERVER / AGENCY   
00L8XRYFXCC213FJTMVBTR_G3T ALPHA        3.4.14 Jan,29,2014  REC # / TYPE / VERS 
-Unknown-           -Unknown-                               ANT # / TYPE        
        0.0000        0.0000        0.0000                  APPROX POSITION XYZ 
        0.0000        0.0000        0.0000                  ANTENNA: DELTA H/E/N
     1     1                                                WAVELENGTH FACT L1/2
    38    CA    LA    DA    SA    P1    L1    D1    S1    CB# / TYPES OF OBSERV 
          LB    DB    SB    CC    LC    DC    SC    P2    L2# / TYPES OF OBSERV 
          D2    S2    C5    L5    D5    S5    CD    LD    DD# / TYPES OF OBSERV 
          SD    C1    C7    L7    D7    S7    C8    L8    D8# / TYPES OF OBSERV 
          S8    C2                                          # / TYPES OF OBSERV 
     1.000                                                  INTERVAL            
  2014     8    29    20     2   22.0000000     GPS         TIME OF FIRST OBS   
  2014     8    29    20     3   51.0000000     GPS         TIME OF LAST OBS    
                                                            END OF HEADER       
 14  8 29 20  2 22.0000000  0 22G 1G 4G 6G 9G11G12G13G14G17G20G23G25
                                G31G32R 1R 2R 3R11R12R17R18R19
  21734318.350   114214691.550       -2815.305          50.500                  
 114214691.550       -2815.305          50.500                                  
                                                                                
                  21734322.780    88998480.652       -2193.697          39.750  
  21734322.120    85290210.208       -2102.317          45.250                  
                                                  21734318.350                  
                                                                                
                                                
  20890710.458   109781472.444        -622.839          53.500                  
 109781472.444        -622.839          53.500                                  
                                                                                
                  20890711.088    85544013.222        -485.319          43.000  
                                                                                
                                                  20890710.458                  
                                                                                
                                                
  24519097.531   128848729.871        3279.137          43.000                  
 128848729.871        3279.137          43.000                                  
                                                                                
                  24519102.811   100401612.399        2555.207          27.000  
  24519102.011    96218204.899        2448.720          37.500                  
                                                  24519097.531                  
                                                                                
                                                
  20408297.293   107246440.600         707.448          54.250                  
 107246440.600         707.448          54.250                                  
                                                                                
                  20408299.273    83568664.374         551.262          48.500  
                                                                                
                                                  20408297.293                  
                                                                                
                                                
  24273368.787   127557461.837       -3906.284          41.500                  
 127557461.837       -3906.284          41.500                                  
                                                                                
                  24273370.037    99395443.939       -3043.883          21.250  
                                                                                
                                                  24273368.787                  
                                                                                
                                                
  24967846.980   131206929.917       -1811.133          33.750                  
 131206929.917       -1811.133          33.750                                  
                                                                                
                  24967852.200   102239164.392       -1411.260          10.000  
                                                                                
                                                  24967846.980                  
                                                                                
                                                
  24303368.122   127715303.595        3560.688          40.750                  
 127715303.595        3560.688          40.750                                  
                                                                                
                  24303369.042    99518252.572        2774.898          21.750  
                                                                                
                                                  24303368.122                  
                                                                                
                                                
  25047788.396   131627129.035       -3565.007          37.250                  
 131627129.035       -3565.007          37.250                                  
                                                                                
                  25047789.976   102566614.105       -2777.932          16.250  
                                                                                
                                                  25047788.396                  
                                                                                
                                                
  23757017.521   124843979.676       -1762.178          45.500                  
 124843979.676       -1762.178          45.500                                  
                                                                                
                  23757018.261    97281036.525       -1373.195          29.500  
                                                                                
                                                  23757017.521                  
                                                                                
                                                
  20157531.583   105928659.577         808.481          50.750                  
 105928659.577         808.481          50.750                                  
                                                                                
                  20157531.143    82541822.802         629.990          45.500  
                                                                                
                                                  20157531.583                  
                                                                                
                                                
  22207324.645   116700314.904        2661.172          49.250                  
 116700314.904        2661.172          49.250                                  
                                                                                
                  22207323.965    90935348.784        2073.708          38.500  
                                                                                
                                                  22207324.645                  
                                                                                
                                                
  24235919.175   127360642.562         -53.500          37.500                  
 127360642.562         -53.500          37.500                                  
                                                                                
                  24235919.885    99242045.576         -41.704          22.000  
  24235925.865    95106960.942         -39.898          36.750                  
                                                  24235919.175                  
                                                                                
                                                
  21418414.847   112554593.690        -506.347          52.250                  
 112554593.690        -506.347          52.250                                  
                                                                                
                  21418414.287    87704893.252        -394.544          42.250  
                                                                                
                                                  21418414.847                  
                                                                                
                                                
  21112472.722   110946876.319       -2051.090          52.500                  
 110946876.319       -2051.090          52.500                                  
                                                                                
                  21112473.092    86452120.010       -1598.238          43.250  
                                                                                
                                                  21112472.722                  
                                                                                
                                                
                                                                  22363355.078  
 119545033.240                          44.750                                  
                                                                                
                  22363364.448    92979490.888       -2798.528          37.000  
                                                                                
                                                                                
                                                                                
                                                
                                                                  19288202.058  
 102925590.343                          54.000                                  
                                                                                
                  19288208.928    80053264.739        -635.074          51.250  
                                                                                
                                                                                
                                                                                
                                                
                                                                  20775919.191  
 111215189.225                          48.000                                  
                                                                                
                  20775926.011    86500720.823        2075.522          47.000  
                                                                                
                                                                                
                                                                                
                                                
                                                                  20872983.095  
 111538951.574                          47.500                                  
                                                                                
                  20872991.225    86752538.161       -1070.828          41.000  
                                                                                
                                                                                
                                                                                
                                                
                                                                  21090111.731  
 112659643.795                          43.750                                  
                                                                                
                  21090122.081    87624177.274        2343.484          43.750  
                                                                                
                                                                                
                                                                                
                                                
                                                                  23094279.320  
 123582163.443                          41.750                                  
                                                                                
                  23094288.740    96119457.577       -3481.852          39.250  
                                                                                
                                                                                
                                                                                
                                                
                                                                  21127923.582  
 112782321.486                          48.250                                  
                                                                                
                  21127932.152    87719589.857       -1412.586          45.250  
                                                                                
                                                                                
                                                                                
                                                
                                                                  22591063.022  
 120846973.892                          44.750                                  
                                                                                
                  22591069.402    93992094.716        2002.065          41.250  
                                                                                
                                                                                
                                                                                
                                                
 14  8 29 20  2 23.0000000  0 22G 1G 4G 6G 9G11G12G13G14G17G20G23G25
                                G31G32R 1R 2R 3R11R12R17R18R19
  21734854.145   114217506.562       -2814.969          50.750                  
 114217506.562       -2814.969          50.750                                  
                                                                                
                  21734858.305    89000674.168       -2193.500          39.750  
  21734857.565    85292312.327       -2102.098          45.750                  
                                                  21734854.145                  
                                                                                
                                                
  20890828.942   109782095.119        -622.810          53.500                  
 109782095.119        -622.810          53.500                                  
                                                                                
                  20890829.732    85544498.419        -485.290          43.000  
                                                                                
                                                  20890828.942                  
                                                                                
                                                
  24518473.066   128845450.391        3279.588          42.750                  
 128845450.391        3279.588          42.750                                  
                                                                                
                  24518476.856   100399056.981        2555.431          27.000  
  24518477.726    96215755.927        2449.068          37.000                  
                                                  24518473.066                  
                                                                                
                                                
  20408162.356   107245732.948         707.638          54.250                  
 107245732.948         707.638          54.250                                  
                                                                                
                  20408164.556    83568112.955         551.395          48.750  
                                                                                
                                                  20408162.356                  
                                                                                
                                                
  24274112.656   127561367.589       -3905.606          41.750                  
 127561367.589       -3905.606          41.750                                  
                                                                                
                  24274113.376    99398487.328       -3043.345          21.250  
                                                                                
                                                  24274112.656                  
                                                                                
                                                
  24968194.164   131208740.673       -1810.621          34.000                  
 131208740.673       -1810.621          34.000                                  
                                                                                
                  24968196.344   102240575.476       -1410.931          10.000  
                                                                                
                                                  24968194.164                  
                                                                                
                                                
  24302691.605   127711742.463        3561.371          40.500                  
 127711742.463        3561.371          40.500                                  
                                                                                
                  24302693.935    99515477.708        2774.937          22.250  
                                                                                
                                                  24302691.605                  
                                                                                
                                                
  25048466.886   131630693.465       -3564.158          37.000                  
 131630693.465       -3564.158          37.000                                  
                                                                                
                  25048469.326   102569391.528       -2777.086          15.250  
                                                                                
                                                  25048466.886                  
                                                                                
                                                
  23757352.251   124845741.617       -1762.005          45.500                  
 124845741.617       -1762.005          45.500                                  
                                                                                
                  23757354.401    97282409.437       -1372.910          29.750  
                                                                                
                                                  23757352.251                  
                                                                                
                                                
  20157377.706   105927850.856         808.688          51.000                  
 105927850.856         808.688          51.000                                  
                                                                                
                  20157377.356    82541192.629         630.155          46.000  
                                                                                
                                                  20157377.706                  
                                                                                
                                                
  22206818.323   116697653.355        2661.625          49.250                  
 116697653.355        2661.625          49.250                                  
                                                                                
                  22206816.913    90933274.855        2074.002          38.500  
                                                                                
                                                  22206818.323                  
                                                                                
                                                
  24235929.998   127360695.719         -53.362          37.750                  
 127360695.719         -53.362          37.750                                  
                                                                                
                  24235931.838    99242086.984         -41.360          22.000  
  24235936.148    95107000.633         -39.682          37.000                  
                                                  24235929.998                  
                                                                                
                                                
  21418510.550   112555099.807        -506.244          52.250                  
 112555099.807        -506.244          52.250                                  
                                                                                
                  21418510.530    87705287.634        -394.494          42.250  
                                                                                
                                                  21418510.550                  
                                                                                
                                                
  21112862.683   110948927.088       -2050.769          52.750                  
 110948927.088       -2050.769          52.750                                  
                                                                                
                  21112863.213    86453718.009       -1598.005          43.750  
                                                                                
                                                  21112862.683                  
                                                                                
                                                
                                                                  22364027.124  
 119548630.882                          44.750                                  
                                                                                
                  22364036.294    92982289.045       -2798.086          37.500  
                                                                                
                                                                                
                                                                                
                                                
                                                                  19288355.042  
 102926406.636                          54.250                                  
                                                                                
                  19288362.122    80053899.638        -634.938          51.250  
                                                                                
                                                                                
                                                                                
                                                
                                                                  20775420.806  
 111212520.410                          48.000                                  
                                                                                
                  20775427.176    86498645.077        2075.832          47.000  
                                                                                
                                                                                
                                                                                
                                                
                                                                  20873240.738  
 111540328.274                          47.500                                  
                                                                                
                  20873248.588    86753608.925       -1070.989          41.500  
                                                                                
                                                                                
                                                                                
                                                
                                                                  21089547.647  
 112656630.508                          44.000                                  
                                                                                
                  21089557.227    87621833.609        2343.595          44.000  
                                                                                
                                                                                
                                                                                
                                                
                                                                  23095116.025  
 123586639.807                          42.250                                  
                                                                                
                  23095124.625    96122939.191       -3481.508          39.750  
                                                                                
                                                                                
                                                                                
                                                
                                                                  21128263.940  
 112784137.585                          48.250                                  
                                                                                
                  21128272.110    87721002.377       -1412.677          45.750  
                                                                                
                                                                                
                                                                                
                                                
                                                                  22590582.091  
 120844399.703                          45.000                                  
                                                                                
                  22590588.451    93990092.568        2002.102          41.250  
                                                                                
                                                                                
                                                                                
                                                
 14  8 29 20  2 24.0000000  0 22G 1G 4G 6G 9G11G12G13G14G17G20G23G25
                                G31G32R 1R 2R 3R11R12R17R18R19
  21735389.763   114220322.087       -2816.065          50.500                  
 114220322.087       -2816.065          50.500                                  
                                                                                
                  21735393.943    89002868.078       -2194.353          39.750  
  21735393.383    85294414.822       -2102.904          45.250                  
                                                  21735389.763                  
                                                                                
                                                
  20890947.360   109782718.524        -624.108          53.250                  
 109782718.524        -624.108          53.250                                  
                                                                                
                  20890948.200    85544984.192        -486.336          42.750  
                                                                                
                                                  20890947.360                  
                                                                                
                                                
  24517848.719   128842171.186        3278.715          43.250                  
 128842171.186        3278.715          43.250                                  
                                                                                
                  24517853.769   100396501.746        2554.806          27.250  
  24517854.219    96213307.167        2448.392          37.000                  
                                                  24517848.719                  
                                                                                
                                                
  20408027.689   107245025.845         706.493          54.500                  
 107245025.845         706.493          54.500                                  
                                                                                
                  20408030.039    83567561.970         550.495          48.750  
                                                                                
                                                  20408027.689                  
                                                                                
                                                
  24274854.868   127565273.462       -3906.235          41.750                  
 127565273.462       -3906.235          41.750                                  
                                                                                
                  24274855.428    99401530.893       -3043.770          21.750  
                                                                                
                                                  24274854.868                  
                                                                                
                                                
  24968538.410   131210552.108       -1811.838          34.500                  
 131210552.108       -1811.838          34.500                                  
                                                                                
                  24968539.210   102241986.940       -1411.870          10.000  
                                                                                
                                                  24968538.410                  
                                                                                
                                                
  24302014.445   127708181.441        3560.593          40.750                  
 127708181.441        3560.593          40.750                                  
                                                                                
                  24302014.255    99512702.889        2774.453          22.250  
                                                                                
                                                  24302014.445                  
                                                                                
                                                
  25049145.350   131634257.969       -3564.964          36.500                  
 131634257.969       -3564.964          36.500                                  
                                                                                
                  25049146.730   102572169.109       -2777.801          15.250  
                                                                                
                                                  25049145.350                  
                                                                                
                                                
  23757687.224   124847504.130       -1763.164          45.500                  
 124847504.130       -1763.164          45.500                                  
                                                                                
                  23757689.704    97283782.850       -1373.969          29.750  
                                                                                
                                                  23757687.224                  
                                                                                
                                                
  20157224.038   105927042.705         807.528          51.250                  
 105927042.705         807.528          51.250                                  
                                                                                
                  20157223.498    82540562.896         629.242          46.000  
                                                                                
                                                  20157224.038                  
                                                                                
                                                
  22206312.015   116694992.125        2660.779          49.250                  
 116694992.125        2660.779          49.250                                  
                                                                                
                  22206310.115    90931201.170        2073.287          38.500  
                                                                                
                                                  22206312.015                  
                                                                                
                                                
  24235940.173   127360749.615         -54.463          37.750                  
 127360749.615         -54.463          37.750                                  
                                                                                
                  24235943.643    99242128.960         -42.385          21.750  
  24235946.533    95107040.886         -40.705          36.750                  
                                                  24235940.173                  
                                                                                
                                                
  21418607.287   112555606.655        -507.537          52.250                  
 112555606.655        -507.537          52.250                                  
                                                                                
                  21418607.287    87705682.571        -395.448          42.250  
                                                                                
                                                  21418607.287                  
                                                                                
                                                
  21113252.473   110950978.277       -2051.765          52.750                  
 110950978.277       -2051.765          52.750                                  
                                                                                
                  21113253.563    86455316.342       -1598.773          43.250  
                                                                                
                                                  21113252.473                  
                                                                                
                                                
                                                                  22364700.885  
 119552228.764                          44.500                                  
                                                                                
                  22364709.575    92985087.395       -2798.730          36.500  
                                                                                
                                                                                
                                                                                
                                                
                                                                  19288508.110  
 102927223.458                          54.000                                  
                                                                                
                  19288515.170    80054534.944        -635.775          50.750  
                                                                                
                                                                                
                                                                                
                                                
                                                                  20774921.775  
 111209851.918                          47.750                                  
                                                                                
                  20774928.565    86496569.585        2075.112          46.500  
                                                                                
                                                                                
                                                                                
                                                
                                                                  20873498.185  
 111541705.911                          47.500                                  
                                                                                
                  20873506.495    86754680.422       -1072.139          40.750  
                                                                                
                                                                                
                                                                                
                                                
                                                                  21088983.468  
 112653617.868                          43.750                                  
                                                                                
                  21088993.838    87619490.439        2342.701          43.500  
                                                                                
                                                                                
                                                                                
                                                
                                                                  23095952.618  
 123591116.396                          41.750                                  
                                                                                
                  23095960.768    96126420.979       -3482.118          39.250  
                                                                                
                                                                                
                                                                                
                                                
                                                                  21128604.359  
 112785954.568                          48.250                                  
                                                                                
                  21128612.799    87722415.582       -1413.826          45.500  
                                                                                
                                                                                
                                                                                
                                                
                                                                  22590101.214  
 120841826.265                          45.000                                  
                                                                                
                  22590107.044    93988091.006        2001.001          40.500  
                                                                                
                                                                                
                                                                                
                                                
 14  8 29 20  2 25.0000000  0 22G 1G 4G 6G 9G11G12G13G14G17G20G23G25
                                G31G32R 1R 2R 3R11R12R17R18R19
  21735925.687   114223138.491       -2816.600          50.500                  
 114223138.491       -2816.600          50.500                                  
                                                                                
                  21735930.267    89005062.679       -2194.760          40.000  
  21735929.307    85296517.982       -2103.292          45.250                  
                                                  21735925.687                  
                                                                                
                                                
  20891066.366   109783343.040        -624.789          53.500                  
 109783343.040        -624.789          53.500                                  
                                                                                
                  20891067.126    85545470.835        -486.855          42.750  
                                                                                
                                                  20891066.366                  
                                                                                
                                                
  24517225.315   128838892.627        3278.549          42.750                  
 128838892.627        3278.549          42.750                                  
                                                                                
                  24517231.055   100393947.049        2554.591          27.500  
  24517229.685    96210858.906        2448.225          37.500                  
                                                  24517225.315                  
                                                                                
                                                
  20407893.328   107244319.679         705.969          54.250                  
 107244319.679         705.969          54.250                                  
                                                                                
                  20407895.818    83567011.709         550.109          48.750  
                                                                                
                                                  20407893.328                  
                                                                                
                                                
  24275598.749   127569179.853       -3906.292          41.750                  
 127569179.853       -3906.292          41.750                                  
                                                                                
                  24275600.559    99404574.829       -3043.966          21.750  
                                                                                
                                                  24275598.749                  
                                                                                
                                                
  24968883.513   131212364.602       -1812.437          34.250                  
 131212364.602       -1812.437          34.250                                  
                                                                                
                  24968885.583   102243399.227       -1412.289          11.500  
                                                                                
                                                  24968883.513                  
                                                                                
                                                
  24301336.018   127704620.975        3560.449          40.750                  
 127704620.975        3560.449          40.750                                  
                                                                                
                  24301339.278    99509928.484        2774.438          22.250  
                                                                                
                                                  24301336.018                  
                                                                                
                                                
  25049825.378   131637822.923       -3565.050          36.750                  
 131637822.923       -3565.050          36.750                                  
                                                                                
                  25049826.148   102574946.984       -2778.062          15.250  
                                                                                
                                                  25049825.378                  
                                                                                
                                                
  23758023.376   124849267.565       -1763.623          45.500                  
 124849267.565       -1763.623          45.500                                  
                                                                                
                  23758025.836    97285156.951       -1374.332          30.000  
                                                                                
                                                  23758023.376                  
                                                                                
                                                
  20157070.790   105926235.485         807.029          51.500                  
 105926235.485         807.029          51.500                                  
                                                                                
                  20157069.760    82539933.894         628.863          45.750  
                                                                                
                                                  20157070.790                  
                                                                                
                                                
  22205805.570   116692331.613        2660.481          49.000                  
 116692331.613        2660.481          49.000                                  
                                                                                
                  22205803.910    90929128.038        2073.096          38.750  
                                                                                
                                                  22205805.570                  
                                                                                
                                                
  24235950.141   127360804.606         -55.168          38.500                  
 127360804.606         -55.168          38.500                                  
                                                                                
                  24235953.711    99242171.844         -43.004          21.750  
  24235957.401    95107081.948         -41.147          36.750                  
                                                  24235950.141                  
                                                                                
                                                
  21418703.922   112556114.614        -508.223          52.250                  
 112556114.614        -508.223          52.250                                  
                                                                                
                  21418703.772    87706078.392        -396.018          42.000  
                                                                                
                                                  21418703.922                  
                                                                                
                                                
  21113643.232   110953030.267       -2052.151          53.000                  
 110953030.267       -2052.151          53.000                                  
                                                                                
                  21113643.932    86456915.288       -1599.056          43.250  
                                                                                
                                                  21113643.232                  
                                                                                
                                                
                                                                  22365373.499  
 119555827.264                          44.500                                  
                                                                                
                  22365383.819    92987886.232       -2798.849          36.750  
                                                                                
                                                                                
                                                                                
                                                
                                                                  19288661.491  
 102928041.209                          54.000                                  
                                                                                
                  19288668.261    80055170.976        -636.186          51.250  
                                                                                
                                                                                
                                                                                
                                                
                                                                  20774423.578  
 111207184.209                          47.750                                  
                                                                                
                  20774430.298    86494494.705        2074.804          46.750  
                                                                                
                                                                                
                                                                                
                                                
                                                                  20873756.311  
 111543084.902                          47.750                                  
                                                                                
                  20873764.921    86755752.973       -1072.897          41.250  
                                                                                
                                                                                
                                                                                
                                                
                                                                  21088419.791  
 112650606.292                          43.750                                  
                                                                                
                  21088429.621    87617148.106        2342.154          44.000  
                                                                                
                                                                                
                                                                                
                                                
                                                                  23096788.716  
 123595593.634                          41.750                                  
                                                                                
                  23096797.356    96129903.265       -3482.292          39.500  
                                                                                
                                                                                
                                                                                
                                                
                                                                  21128944.782  
 112787772.780                          48.250                                  
                                                                                
                  21128953.452    87723829.753       -1414.431          45.750  
                                                                                
                                                                                
                                                                                
                                                
                                                                  22589619.860  
 120839253.965                          44.750                                  
                                                                                
                  22589626.090    93986090.329        2000.402          41.250  
                                                                                
                                                                                
                                                                                
                                                
 14  8 29 20  2 26.0000000  0 22G 1G 4G 6G 9G11G12G13G14G17G20G23G25
                                G31G32R 1R 2R 3R11R12R17R18R19
  21736461.446   114225955.300       -2817.019          50.500                  
 114225955.300       -2817.019          50.500                                  
                                                                                
                  21736465.926    89007257.591       -2195.030          39.750  
  21736465.426    85298621.443       -2103.615          45.500                  
                                                  21736461.446                  
                                                                                
                                                
  20891185.308   109783968.206        -625.445          53.500                  
 109783968.206        -625.445          53.500                                  
                                                                                
                  20891186.278    85545957.964        -487.330          43.000  
                                                                                
                                                  20891185.308                  
                                                                                
                                                
  24516601.024   128835614.289        3278.314          43.000                  
 128835614.289        3278.314          43.000                                  
                                                                                
                  24516606.174   100391392.507        2554.448          27.000  
  24516605.614    96208410.790        2448.092          37.750                  
                                                  24516601.024                  
                                                                                
                                                
  20407759.495   107243613.983         705.489          54.250                  
 107243613.983         705.489          54.250                                  
                                                                                
                  20407761.515    83566461.818         549.701          48.500  
                                                                                
                                                  20407759.495                  
                                                                                
                                                
  24276341.152   127573086.279       -3906.323          41.750                  
 127573086.279       -3906.323          41.750                                  
                                                                                
                  24276343.082    99407618.761       -3043.943          21.750  
                                                                                
                                                  24276341.152                  
                                                                                
                                                
  24969228.295   131214177.537       -1813.458          36.250                  
 131214177.537       -1813.458          36.250                                  
                                                                                
                  24969228.715   102244812.012       -1413.147          11.500  
                                                                                
                                                  24969228.295                  
                                                                                
                                                
  24300657.993   127701060.606        3560.385          40.250                  
 127701060.606        3560.385          40.250                                  
                                                                                
                  24300658.073    99507154.165        2774.375          21.500  
                                                                                
                                                  24300657.993                  
                                                                                
                                                
  25050504.944   131641387.852       -3564.873          37.250                  
 131641387.852       -3564.873          37.250                                  
                                                                                
                  25050503.784   102577724.851       -2777.905          15.250  
                                                                                
                                                  25050504.944                  
                                                                                
                                                
  23758358.061   124851031.478       -1764.068          45.750                  
 124851031.478       -1764.068          45.750                                  
                                                                                
                  23758360.931    97286531.416       -1374.627          29.250  
                                                                                
                                                  23758358.061                  
                                                                                
                                                
  20156916.898   105925428.739         806.559          51.500                  
 105925428.739         806.559          51.500                                  
                                                                                
                  20156916.558    82539305.263         628.483          45.750  
                                                                                
                                                  20156916.898                  
                                                                                
                                                
  22205299.415   116689671.353        2660.167          49.000                  
 116689671.353        2660.167          49.000                                  
                                                                                
                  22205297.585    90927055.103        2072.863          38.750  
                                                                                
                                                  22205299.415                  
                                                                                
                                                
  24235959.902   127360860.229         -55.847          38.000                  
 127360860.229         -55.847          38.000                                  
                                                                                
                  24235964.752    99242215.177         -43.552          21.750  
  24235967.782    95107123.478         -41.706          37.000                  
                                                  24235959.902                  
                                                                                
                                                
  21418800.542   112556623.211        -508.867          52.250                  
 112556623.211        -508.867          52.250                                  
                                                                                
                  21418800.632    87706474.703        -396.499          42.000  
                                                                                
                                                  21418800.542                  
                                                                                
                                                
  21114033.972   110955082.582       -2052.464          53.000                  
 110955082.582       -2052.464          53.000                                  
                                                                                
                  21114034.642    86458514.504       -1599.297          43.250  
                                                                                
                                                  21114033.972                  
                                                                                
                                                
                                                                  22366047.434  
 119559425.909                          44.500                                  
                                                                                
                  22366056.564    92990685.172       -2798.943          36.500  
                                                                                
                                                                                
                                                                                
                                                
                                                                  19288814.635  
 102928859.443                          54.250                                  
                                                                                
                  19288821.555    80055807.377        -636.585          51.250  
                                                                                
                                                                                
                                                                                
                                                
                                                                  20773925.282  
 111204516.801                          47.750                                  
                                                                                
                  20773931.872    86492420.052        2074.593          46.750  
                                                                                
                                                                                
                                                                                
                                                
                                                                  20874014.459  
 111544464.754                          47.500                                  
                                                                                
                  20874023.099    86756826.194       -1073.570          41.500  
                                                                                
                                                                                
                                                                                
                                                
                                                                  21087856.165  
 112647595.344                          44.000                                  
                                                                                
                  21087866.095    87614806.260        2341.618          44.000  
                                                                                
                                                                                
                                                                                
                                                
                                                                  23097624.991  
 123600071.015                          41.500                                  
                                                                                
                  23097633.841    96133385.678       -3482.420          39.750  
                                                                                
                                                                                
                                                                                
                                                
                                                                  21129285.784  
 112789591.824                          48.250                                  
                                                                                
                  21129294.274    87725244.557       -1415.089          45.750  
                                                                                
                                                                                
                                                                                
                                                
                                                                  22589139.193  
 120836682.298                          45.000                                  
                                                                                
                  22589145.563    93984090.156        1999.946          41.000  
                                                                                
                                                                                
                                                                                
                                                
 14  8 29 20  2 27.0000000  0 22G 1G 4G 6G 9G11G12G13G14G17G20G23G25
                                G31G32R 1R 2R 3R11R12R17R18R19
  21736997.667   114228772.076       -2816.948          50.500                  
 114228772.076       -2816.948          50.500                                  
                                                                                
                  21737002.337    89009452.479       -2195.029          40.000  
  21737001.347    85300724.876       -2103.577          45.500                  
                                                  21736997.667                  
                                                                                
                                                
  20891304.167   109784593.576        -625.647          53.500                  
 109784593.576        -625.647          53.500                                  
                                                                                
                  20891305.187    85546445.269        -487.521          42.750  
                                                                                
                                                  20891304.167                  
                                                                                
                                                
  24515977.726   128832335.732        3278.491          42.750                  
 128832335.732        3278.491          42.750                                  
                                                                                
                  24515982.006   100388837.781        2554.504          26.750  
  24515982.686    96205962.519        2448.234          37.250                  
                                                  24515977.726                  
                                                                                
                                                
  20407625.275   107242908.315         705.461          54.500                  
 107242908.315         705.461          54.500                                  
                                                                                
                  20407627.215    83565911.943         549.699          48.750  
                                                                                
                                                  20407625.275                  
                                                                                
                                                
  24277085.147   127576992.284       -3906.020          42.000                  
 127576992.284       -3906.020          42.000                                  
                                                                                
                  24277086.377    99410662.400       -3043.556          21.750  
                                                                                
                                                  24277085.147                  
                                                                                
                                                
  24969571.917   131215990.591       -1813.257          35.750                  
 131215990.591       -1813.257          35.750                                  
                                                                                
                  24969573.657   102246224.686       -1412.936          11.500  
                                                                                
                                                  24969571.917                  
                                                                                
                                                
  24299980.207   127697499.824        3560.968          40.500                  
 127697499.824        3560.968          40.500                                  
                                                                                
                  24299982.687    99504379.549        2774.628          21.500  
                                                                                
                                                  24299980.207                  
                                                                                
                                                
  25051182.715   131644952.325       -3564.515          37.250                  
 131644952.325       -3564.515          37.250                                  
                                                                                
                  25051183.195   102580502.424       -2777.712          15.250  
                                                                                
                                                  25051182.715                  
                                                                                
                                                
  23758694.284   124852795.417       -1764.151          45.750                  
 124852795.417       -1764.151          45.750                                  
                                                                                
                  23758694.184    97287905.934       -1374.737          30.000  
                                                                                
                                                  23758694.284                  
                                                                                
                                                
  20156763.512   105924622.027         806.515          51.500                  
 105924622.027         806.515          51.500                                  
                                                                                
                  20156762.992    82538676.655         628.460          45.750  
                                                                                
                                                  20156763.512                  
                                                                                
                                                
  22204793.147   116687010.865        2660.398          49.000                  
 116687010.865        2660.398          49.000                                  
                                                                                
                  22204791.737    90924982.008        2072.999          38.750  
                                                                                
                                                  22204793.147                  
                                                                                
                                                
  24235971.369   127360916.007         -55.855          38.250                  
 127360916.007         -55.855          38.250                                  
                                                                                
                  24235972.599    99242258.623         -43.467          20.750  
  24235978.279    95107165.131         -41.725          36.500                  
                                                  24235971.369                  
                                                                                
                                                
  21418897.228   112557132.027        -509.133          52.250                  
 112557132.027        -509.133          52.250                                  
                                                                                
                  21418897.528    87706871.173        -396.735          42.250  
                                                                                
                                                  21418897.228                  
                                                                                
                                                
  21114424.347   110957134.793       -2052.374          53.250                  
 110957134.793       -2052.374          53.250                                  
                                                                                
                  21114424.957    86460113.623       -1599.270          43.500  
                                                                                
                                                  21114424.347                  
                                                                                
                                                
                                                                  22366720.548  
 119563024.252                          44.250                                  
                                                                                
                  22366729.648    92993483.906       -2798.727          36.750  
                                                                                
                                                                                
                                                                                
                                                
                                                                  19288968.002  
 102929677.729                          54.000                                  
                                                                                
                  19288974.942    80056443.820        -636.626          51.250  
                                                                                
                                                                                
                                                                                
                                                
                                                                  20773426.652  
 111201849.266                          47.750                                  
                                                                                
                  20773433.612    86490345.305        2074.617          46.750  
                                                                                
                                                                                
                                                                                
                                                
                                                                  20874273.097  
 111545845.015                          47.750                                  
                                                                                
                  20874280.917    86757899.727       -1073.889          41.000  
                                                                                
                                                                                
                                                                                
                                                
                                                                  21087292.898  
 112644584.590                          44.000                                  
                                                                                
                  21087302.458    87612464.566        2341.492          44.000  
                                                                                
                                                                                
                                                                                
                                                
                                                                  23098462.142  
 123604548.113                          42.000                                  
                                                                                
                  23098471.242    96136867.863       -3482.230          39.250  
                                                                                
                                                                                
                                                                                
                                                
                                                                  21129626.365  
 112791411.213                          48.250                                  
                                                                                
                  21129634.935    87726659.649       -1415.397          45.750  
                                                                                
                                                                                
                                                                                
                                                
                                                                  22588658.917  
 120834110.856                          44.750                                  
                                                                                
                  22588664.617    93982090.146        1999.776          41.000  
                                                                                
                                                                                
                                                                                
                                                
 14  8 29 20  2 28.0000000  0 22G 1G 4G 6G 9G11G12G13G14G17G20G23G25
                                G31G32R 1R 2R 3R11R12R17R18R19
  21737533.905   114231589.252       -2817.653          50.500                  
 114231589.252       -2817.653          50.500                                  
                                                                                
                  21737538.315    89011647.686       -2195.589          39.750  
  21737537.475    85302828.616       -2104.111          45.500                  
                                                  21737533.905                  
                                                                                
                                                
  20891423.634   109785219.586        -626.545          53.500                  
 109785219.586        -626.545          53.500                                  
                                                                                
                  20891424.494    85546933.066        -488.242          42.500  
                                                                                
                                                  20891423.634                  
                                                                                
                                                
  24515353.057   128829057.378        3278.032          42.750                  
 128829057.378        3278.032          42.750                                  
                                                                                
                  24515358.407   100386283.215        2554.182          27.750  
  24515358.597    96203514.395        2447.878          37.500                  
                                                  24515353.057                  
                                                                                
                                                
  20407491.163   107242203.104         704.689          54.750                  
 107242203.104         704.689          54.750                                  
                                                                                
                  20407493.153    83565362.429         549.102          48.750  
                                                                                
                                                  20407491.163                  
                                                                                
                                                
  24277828.137   127580898.301       -3906.358          41.750                  
 127580898.301       -3906.358          41.750                                  
                                                                                
                  24277829.927    99413706.039       -3043.683          21.750  
                                                                                
                                                  24277828.137                  
                                                                                
                                                
  24969916.720   131217804.167       -1814.098          35.750                  
 131217804.167       -1814.098          35.750                                  
                                                                                
                  24969917.440   102247637.836       -1413.545          11.500  
                                                                                
                                                  24969916.720                  
                                                                                
                                                
  24299304.594   127693939.124        3560.378          40.250                  
 127693939.124        3560.378          40.250                                  
                                                                                
                  24299302.294    99501604.969        2774.248          21.500  
                                                                                
                                                  24299304.594                  
                                                                                
                                                
  25051860.327   131648516.773       -3564.564          37.250                  
 131648516.773       -3564.564          37.250                                  
                                                                                
                  25051861.037   102583279.838       -2777.545          16.000  
                                                                                
                                                  25051860.327                  
                                                                                
                                                
  23759029.836   124854559.816       -1764.805          46.000                  
 124854559.816       -1764.805          46.000                                  
                                                                                
                  23759033.366    97289280.804       -1375.298          29.000  
                                                                                
                                                  23759029.836                  
                                                                                
                                                
  20156610.201   105923815.789         805.753          51.500                  
 105923815.789         805.753          51.500                                  
                                                                                
                  20156609.341    82538048.417         627.856          45.750  
                                                                                
                                                  20156610.201                  
                                                                                
                                                
  22204287.106   116684350.619        2659.868          49.000                  
 116684350.619        2659.868          49.000                                  
                                                                                
                  22204285.286    90922909.094        2072.598          38.250  
                                                                                
                                                  22204287.106                  
                                                                                
                                                
  24235982.602   127360972.365         -56.756          37.750                  
 127360972.365         -56.756          37.750                                  
                                                                                
                  24235984.652    99242302.580         -44.061          20.750  
  24235988.642    95107207.249         -42.451          36.750                  
                                                  24235982.602                  
                                                                                
                                                
  21418994.792   112557641.453        -510.011          52.250                  
 112557641.453        -510.011          52.250                                  
                                                                                
                  21418994.282    87707268.132        -397.411          42.000  
                                                                                
                                                  21418994.792                  
                                                                                
                                                
  21114815.232   110959187.314       -2052.933          53.250                  
 110959187.314       -2052.933          53.250                                  
                                                                                
                  21114815.602    86461712.994       -1599.715          43.250  
                                                                                
                                                  21114815.232                  
                                                                                
                                                
                                                                  22367393.645  
 119566622.722                          44.250                                  
                                                                                
                  22367402.525    92996282.707       -2799.022          36.250  
                                                                                
                                                                                
                                                                                
                                                
                                                                  19289121.419  
 102930496.512                          54.000                                  
                                                                                
                  19289128.309    80057080.655        -637.260          51.250  
                                                                                
                                                                                
                                                                                
                                                
                                                                  20772928.541  
 111199181.980                          47.750                                  
                                                                                
                  20772935.511    86488270.748        2074.287          46.750  
                                                                                
                                                                                
                                                                                
                                                
                                                                  20874531.005  
 111547226.134                          47.750                                  
                                                                                
                  20874539.765    86758973.938       -1074.748          41.000  
                                                                                
                                                                                
                                                                                
                                                
                                                                  21086729.047  
 112641574.452                          43.750                                  
                                                                                
                  21086738.777    87610123.349        2340.761          44.000  
                                                                                
                                                                                
                                                                                
                                                
                                                                  23099298.730  
 123609025.352                          42.000                                  
                                                                                
                  23099307.490    96140350.162       -3482.555          39.500  
                                                                                
                                                                                
                                                                                
                                                
                                                                  21129967.358  
 112793231.390                          48.250                                  
                                                                                
                  21129976.048    87728075.334       -1416.202          45.500  
                                                                                
                                                                                
                                                                                
                                                
                                                                  22588178.313  
 120831540.079                          44.750                                  
                                                                                
                  22588183.853    93980090.656        1999.019          41.000  
                                                                                
                                                                                
                                                                                
                                                
 14  8 29 20  2 29.0000000  0 22G 1G 4G 6G 9G11G12G13G14G17G20G23G25
                                G31G32R 1R 2R 3R11R12R17R18R19
  21738070.015   114234406.895       -2817.575          50.250                  
 114234406.895       -2817.575          50.250                                  
                                                                                
                  21738074.015    89013843.246       -2195.481          39.750  
  21738073.375    85304932.702       -2104.026          45.250                  
                                                  21738070.015                  
                                                                                
                                                
  20891542.907   109785846.282        -626.761          53.250                  
 109785846.282        -626.761          53.250                                  
                                                                                
                  20891543.577    85547421.404        -488.358          43.000  
                                                                                
                                                  20891542.907                  
                                                                                
                                                
  24514730.478   128825779.270        3278.199          42.500                  
 128825779.270        3278.199          42.500                                  
                                                                                
                  24514734.898   100383728.855        2554.389          27.250  
  24514735.298    96201066.466        2448.016          37.250                  
                                                  24514730.478                  
                                                                                
                                                
  20407356.838   107241498.413         704.733          55.000                  
 107241498.413         704.733          55.000                                  
                                                                                
                  20407358.928    83564813.321         549.153          48.750  
                                                                                
                                                  20407356.838                  
                                                                                
                                                
  24278570.723   127584804.402       -3905.900          42.000                  
 127584804.402       -3905.900          42.000                                  
                                                                                
                  24278572.783    99416749.794       -3043.632          21.750  
                                                                                
                                                  24278570.723                  
                                                                                
                                                
  24970262.414   131219618.310       -1814.002          35.750                  
 131219618.310       -1814.002          35.750                                  
                                                                                
                  24970266.184   102249051.475       -1413.702          11.500  
                                                                                
                                                  24970262.414                  
                                                                                
                                                
  24298626.851   127690378.529        3560.883          39.750                  
 127690378.529        3560.883          39.750                                  
                                                                                
                  24298625.591    99498830.490        2774.571          21.500  
                                                                                
                                                  24298626.851                  
                                                                                
                                                
  25052540.328   131652081.275       -3564.104          38.000                  
 131652081.275       -3564.104          38.000                                  
                                                                                
                  25052539.758   102586057.351       -2777.160          16.000  
                                                                                
                                                  25052540.328                  
                                                                                
                                                
  23759366.641   124856324.764       -1764.881          46.000                  
 124856324.764       -1764.881          46.000                                  
                                                                                
                  23759367.911    97290656.058       -1375.210          30.000  
                                                                                
                                                  23759366.641                  
                                                                                
                                                
  20156456.534   105923010.073         805.755          51.750                  
 105923010.073         805.755          51.750                                  
                                                                                
                  20156456.034    82537420.588         627.882          45.750  
                                                                                
                                                  20156456.534                  
                                                                                
                                                
  22203780.502   116681690.678        2660.090          49.250                  
 116681690.678        2660.090          49.250                                  
                                                                                
                  22203779.352    90920836.414        2072.815          38.500  
                                                                                
                                                  22203780.502                  
                                                                                
                                                
  24235993.722   127361029.408         -56.724          38.000                  
 127361029.408         -56.724          38.000                                  
                                                                                
                  24235993.282    99242346.971         -44.124          20.750  
  24235999.602    95107249.835         -42.389          37.250                  
                                                  24235993.722                  
                                                                                
                                                
  21419091.158   112558151.572        -510.181          52.250                  
 112558151.572        -510.181          52.250                                  
                                                                                
                  21419091.618    87707665.634        -397.547          42.250  
                                                                                
                                                  21419091.158                  
                                                                                
                                                
  21115205.633   110961240.210       -2052.833          53.250                  
 110961240.210       -2052.833          53.250                                  
                                                                                
                  21115206.423    86463312.652       -1599.582          43.500  
                                                                                
                                                  21115205.633                  
                                                                                
                                                
                                                                  22368067.174  
 119570221.387                          44.250                                  
                                                                                
                  22368075.384    92999081.672       -2798.735          36.250  
                                                                                
                                                                                
                                                                                
                                                
                                                                  19289275.082  
 102931315.836                          54.000                                  
                                                                                
                  19289281.822    80057717.909        -637.221          51.000  
                                                                                
                                                                                
                                                                                
                                                
                                                                  20772430.540  
 111196515.015                          47.500                                  
                                                                                
                  20772437.130    86486196.452        2074.466          46.500  
                                                                                
                                                                                
                                                                                
                                                
                                                                  20874789.782  
 111548608.159                          47.500                                  
                                                                                
                  20874797.832    86760048.839       -1074.972          40.750  
                                                                                
                                                                                
                                                                                
                                                
                                                                  21086165.889  
 112638564.877                          43.500                                  
                                                                                
                  21086175.529    87607782.568        2340.760          43.250  
                                                                                
                                                                                
                                                                                
                                                
                                                                  23100135.365  
 123613502.793                          41.750                                  
                                                                                
                  23100144.335    96143832.619       -3482.293          38.500  
                                                                                
                                                                                
                                                                                
                                                
                                                                  21130308.535  
 112795052.397                          48.250                                  
                                                                                
                  21130317.315    87729491.677       -1416.412          45.250  
                                                                                
                                                                                
                                                                                
                                                
                                                                  22587697.391  
 120828970.021                          44.500                                  
                                                                                
                  22587703.751    93978091.728        1998.872          40.750  
                                                                                
                                                                                
                                                                                
                                                
 14  8 29 20  2 30.0000000  0 22G 1G 4G 6G 9G11G12G13G14G17G20G23G25
                                G31G32R 1R 2R 3R11R12R17R18R19
  21738606.440   114237224.850       -2817.998          50.500                  
 114237224.850       -2817.998          50.500                                  
                                                                                
                  21738610.550    89016039.057       -2195.872          39.750  
  21738609.800    85307037.011       -2104.357          45.500                  
                                                  21738606.440                  
                                                                                
                                                
  20891662.170   109786473.537        -627.443          53.500                  
 109786473.537        -627.443          53.500                                  
                                                                                
                  20891662.840    85547910.168        -488.917          43.250  
                                                                                
                                                  20891662.170                  
                                                                                
                                                
  24514106.631   128822501.271        3277.964          42.500                  
 128822501.271        3277.964          42.500                                  
                                                                                
                  24514111.051   100381174.561        2554.278          27.500  
  24514111.681    96198618.615        2447.839          37.500                  
                                                  24514106.631                  
                                                                                
                                                
  20407222.732   107240794.099         704.204          54.750                  
 107240794.099         704.204          54.750                                  
                                                                                
                  20407224.812    83564264.506         548.727          48.750  
                                                                                
                                                  20407222.732                  
                                                                                
                                                
  24279313.831   127588710.453       -3905.898          42.000                  
 127588710.453       -3905.898          42.000                                  
                                                                                
                  24279316.571    99419793.440       -3043.551          21.500  
                                                                                
                                                  24279313.831                  
                                                                                
                                                
  24970608.644   131221432.811       -1814.660          36.250                  
 131221432.811       -1814.660          36.250                                  
                                                                                
                  24970610.594   102250465.325       -1413.850          11.500  
                                                                                
                                                  24970608.644                  
                                                                                
                                                
  24297948.855   127686817.911        3560.751          40.000                  
 127686817.911        3560.751          40.000                                  
                                                                                
                  24297949.565    99496055.975        2774.687          21.500  
                                                                                
                                                  24297948.855                  
                                                                                
                                                
  25053217.643   131655645.613       -3564.030          38.000                  
 131655645.613       -3564.030          38.000                                  
                                                                                
                  25053216.773   102588834.796       -2777.156          16.000  
                                                                                
                                                  25053217.643                  
                                                                                
                                                
  23759701.896   124858090.066       -1765.365          45.750                  
 124858090.066       -1765.365          45.750                                  
                                                                                
                  23759704.366    97292031.618       -1375.512          30.250  
                                                                                
                                                  23759701.896                  
                                                                                
                                                
  20156303.022   105922204.724         805.219          52.000                  
 105922204.724         805.219          52.000                                  
                                                                                
                  20156302.822    82536793.051         627.452          45.750  
                                                                                
                                                  20156303.022                  
                                                                                
                                                
  22203274.581   116679030.856        2659.816          49.000                  
 116679030.856        2659.816          49.000                                  
                                                                                
                  22203273.131    90918763.823        2072.617          38.500  
                                                                                
                                                  22203274.581                  
                                                                                
                                                
  24236006.580   127361087.046         -57.518          36.250                  
 127361087.046         -57.518          36.250                                  
                                                                                
                  24236008.360    99242391.910         -44.813          21.000  
  24236010.500    95107292.849         -42.909          37.250                  
                                                  24236006.580                  
                                                                                
                                                
  21419188.767   112558662.236        -510.871          52.250                  
 112558662.236        -510.871          52.250                                  
                                                                                
                  21419188.517    87708063.558        -398.115          42.250  
                                                                                
                                                  21419188.767                  
                                                                                
                                                
  21115596.044   110963293.325       -2053.165          53.000                  
 110963293.325       -2053.165          53.000                                  
                                                                                
                  21115597.244    86464912.480       -1599.876          43.000  
                                                                                
                                                  21115596.044                  
                                                                                
                                                
                                                                  22368740.072  
 119573820.092                          44.750                                  
                                                                                
                  22368748.342    93001880.656       -2798.922          36.000  
                                                                                
                                                                                
                                                                                
                                                
                                                                  19289428.550  
 102932135.496                          54.000                                  
                                                                                
                  19289435.740    80058355.421        -637.547          51.250  
                                                                                
                                                                                
                                                                                
                                                
                                                                  20771932.516  
 111193848.184                          47.500                                  
                                                                                
                  20771939.036    86484122.249        2074.242          46.500  
                                                                                
                                                                                
                                                                                
                                                
                                                                  20875048.472  
 111549990.942                          47.250                                  
                                                                                
                  20875056.502    86761124.342       -1075.742          40.500  
                                                                                
                                                                                
                                                                                
                                                
                                                                  21085601.958  
 112635555.766                          43.500                                  
                                                                                
                  21085612.108    87605442.146        2340.317          43.750  
                                                                                
                                                                                
                                                                                
                                                
                                                                  23100972.197  
 123617980.276                          41.750                                  
                                                                                
                  23100980.477    96147315.103       -3482.437          39.500  
                                                                                
                                                                                
                                                                                
                                                
                                                                  21130649.848  
 112796874.099                          48.250                                  
                                                                                
                  21130658.798    87730908.551       -1417.026          45.750  
                                                                                
                                                                                
                                                                                
                                                
                                                                  22587216.831  
 120826400.509                          44.500                                  
                                                                                
                  22587222.901    93976093.225        1998.343          41.000  
                                                                                
                                                                                
                                                                                
                                                
 14  8 29 20  2 31.0000000  0 22G 1G 4G 6G 9G11G12G13G14G17G20G23G25
                                G31G32R 1R 2R 3R11R12R17R18R19
  21739142.969   114240043.462       -2818.724          50.500                  
 114240043.462       -2818.724          50.500                                  
                                                                                
                  21739147.219    89018235.371       -2196.403          40.000  
  21739145.909    85309141.818       -2104.875          45.000                  
                                                  21739142.969                  
                                                                                
                                                
  20891781.491   109787101.685        -628.448          53.500                  
 109787101.685        -628.448          53.500                                  
                                                                                
                  20891782.481    85548399.641        -489.677          43.000  
                                                                                
                                                  20891781.491                  
                                                                                
                                                
  24513482.163   128819223.729        3277.403          42.750                  
 128819223.729        3277.403          42.750                                  
                                                                                
                  24513486.003   100378620.613        2553.919          27.000  
  24513486.893    96196171.105        2447.414          37.500                  
                                                  24513482.163                  
                                                                                
                                                
  20407088.964   107240090.489         703.473          54.750                  
 107240090.489         703.473          54.750                                  
                                                                                
                  20407091.114    83563716.236         548.167          48.750  
                                                                                
                                                  20407088.964                  
                                                                                
                                                
  24280056.740   127592616.765       -3906.256          42.250                  
 127592616.765       -3906.256          42.250                                  
                                                                                
                  24280059.890    99422837.336       -3043.844          21.500  
                                                                                
                                                  24280056.740                  
                                                                                
                                                
  24970955.981   131223248.123       -1815.466          36.500                  
 131223248.123       -1815.466          36.500                                  
                                                                                
                  24970958.001   102251879.914       -1414.609          11.250  
                                                                                
                                                  24970955.981                  
                                                                                
                                                
  24297269.906   127683257.630        3560.317          40.000                  
 127683257.630        3560.317          40.000                                  
                                                                                
                  24297271.136    99493281.717        2774.245          22.250  
                                                                                
                                                  24297269.906                  
                                                                                
                                                
  25053895.072   131659210.261       -3564.517          38.000                  
 131659210.261       -3564.517          38.000                                  
                                                                                
                  25053893.562   102591612.424       -2777.492          15.750  
                                                                                
                                                  25053895.072                  
                                                                                
                                                
  23760037.726   124859856.103       -1766.261          46.000                  
 124859856.103       -1766.261          46.000                                  
                                                                                
                  23760039.376    97293407.750       -1376.202          29.500  
                                                                                
                                                  23760037.726                  
                                                                                
                                                
  20156150.110   105921400.099         804.464          52.000                  
 105921400.099         804.464          52.000                                  
                                                                                
                  20156149.750    82536166.067         626.853          46.250  
                                                                                
                                                  20156150.110                  
                                                                                
                                                
  22202768.354   116676371.543        2659.199          49.000                  
 116676371.543        2659.199          49.000                                  
                                                                                
                  22202767.354    90916691.634        2072.120          38.500  
                                                                                
                                                  22202768.354                  
                                                                                
                                                
  24236016.647   127361145.462         -58.815          36.500                  
 127361145.462         -58.815          36.500                                  
                                                                                
                  24236018.177    99242437.458         -45.618          21.000  
  24236022.147    95107336.518         -43.852          36.250                  
                                                  24236016.647                  
                                                                                
                                                
  21419286.095   112559173.785        -511.809          52.500                  
 112559173.785        -511.809          52.500                                  
                                                                                
                  21419286.045    87708462.157        -398.772          42.000  
                                                                                
                                                  21419286.095                  
                                                                                
                                                
  21115986.958   110965347.044       -2053.870          53.250                  
 110965347.044       -2053.870          53.250                                  
                                                                                
                  21115987.598    86466512.776       -1600.416          43.250  
                                                                                
                                                  21115986.958                  
                                                                                
                                                
                                                                  22369413.611  
 119577419.175                          45.000                                  
                                                                                
                  22369421.511    93004679.933       -2799.315          37.000  
                                                                                
                                                                                
                                                                                
                                                
                                                                  19289582.341  
 102932955.868                          54.250                                  
                                                                                
                  19289589.461    80058993.492        -638.218          51.250  
                                                                                
                                                                                
                                                                                
                                                
                                                                  20771433.960  
 111191181.860                          47.750                                  
                                                                                
                  20771440.730    86482048.442        2073.727          46.750  
                                                                                
                                                                                
                                                                                
                                                
                                                                  20875307.925  
 111551374.827                          47.500                                  
                                                                                
                  20875315.855    86762200.694       -1076.612          41.000  
                                                                                
                                                                                
                                                                                
                                                
                                                                  21085039.393  
 112632547.553                          43.750                                  
                                                                                
                  21085048.923    87603102.425        2339.564          44.000  
                                                                                
                                                                                
                                                                                
                                                
                                                                  23101809.035  
 123622458.184                          41.500                                  
                                                                                
                  23101817.235    96150797.915       -3482.968          39.000  
                                                                                
                                                                                
                                                                                
                                                
                                                                  21130991.282  
 112798696.864                          48.500                                  
                                                                                
                  21130999.732    87732326.258       -1417.966          45.750  
                                                                                
                                                                                
                                                                                
                                                
                                                                  22586736.875  
 120823831.936                          44.500                                  
                                                                                
                  22586743.085    93974095.450        1997.486          41.250  
                                                                                
                                                                                
                                                                                
                                                
 14  8 29 20  2 32.0000000  0 22G 1G 4G 6G 9G11G12G13G14G17G20G23G25
                                G31G32R 1R 2R 3R11R12R17R18R19
  21739679.103   114242862.502       -2819.188          50.500                  
 114242862.502       -2819.188          50.500                                  
                                                                                
                  21739683.343    89020432.035       -2196.794          39.500  
  21739682.703    85311246.955       -2105.265          45.250                  
                                                  21739679.103                  
                                                                                
                                                
  20891901.345   109787730.513        -629.096          53.500                  
 109787730.513        -629.096          53.500                                  
                                                                                
                  20891902.325    85548889.635        -490.237          43.000  
                                                                                
                                                  20891901.345                  
                                                                                
                                                
  24512857.918   128815946.386        3277.253          42.750                  
 128815946.386        3277.253          42.750                                  
                                                                                
                  24512861.058   100376066.859        2553.733          26.750  
  24512863.858    96193723.758        2447.284          37.000                  
                                                  24512857.918                  
                                                                                
                                                
  20406954.783   107239387.371         702.942          54.750                  
 107239387.371         702.942          54.750                                  
                                                                                
                  20406957.173    83563168.357         547.763          48.750  
                                                                                
                                                  20406954.783                  
                                                                                
                                                
  24280800.759   127596523.122       -3906.436          42.250                  
 127596523.122       -3906.436          42.250                                  
                                                                                
                  24280803.819    99425881.242       -3043.889          21.500  
                                                                                
                                                  24280800.759                  
                                                                                
                                                
  24971300.020   131225063.993       -1816.024          36.250                  
 131225063.993       -1816.024          36.250                                  
                                                                                
                  24971303.150   102253294.852       -1414.883          11.250  
                                                                                
                                                  24971300.020                  
                                                                                
                                                
  24296592.801   127679697.392        3560.264          39.750                  
 127679697.392        3560.264          39.750                                  
                                                                                
                  24296594.611    99490507.531        2774.208          22.250  
                                                                                
                                                  24296592.801                  
                                                                                
                                                
  25054574.576   131662774.868       -3564.481          38.250                  
 131662774.868       -3564.481          38.250                                  
                                                                                
                  25054574.386   102594390.026       -2777.483          16.000  
                                                                                
                                                  25054574.576                  
                                                                                
                                                
  23760373.985   124861622.604       -1766.655          45.750                  
 124861622.604       -1766.655          45.750                                  
                                                                                
                  23760374.835    97294784.253       -1376.640          29.500  
                                                                                
                                                  23760373.985                  
                                                                                
                                                
  20155997.039   105920595.985         803.906          52.000                  
 105920595.985         803.906          52.000                                  
                                                                                
                  20155996.519    82535539.481         626.422          46.000  
                                                                                
                                                  20155997.039                  
                                                                                
                                                
  22202262.236   116673712.485        2658.994          49.250                  
 116673712.485        2658.994          49.250                                  
                                                                                
                  22202260.746    90914619.636        2071.933          38.000  
                                                                                
                                                  22202262.236                  
                                                                                
                                                
  24236029.787   127361204.595         -59.481          36.500                  
 127361204.595         -59.481          36.500                                  
                                                                                
                  24236030.137    99242483.538         -46.310          21.000  
  24236033.017    95107380.642         -44.362          36.250                  
                                                  24236029.787                  
                                                                                
                                                
  21419383.500   112559685.990        -512.486          52.500                  
 112559685.990        -512.486          52.500                                  
                                                                                
                  21419383.420    87708861.284        -399.334          42.000  
                                                                                
                                                  21419383.500                  
                                                                                
                                                
  21116378.074   110967401.090       -2054.198          53.250                  
 110967401.090       -2054.198          53.250                                  
                                                                                
                  21116378.514    86468113.335       -1600.656          43.500  
                                                                                
                                                  21116378.074                  
                                                                                
                                                
                                                                  22370087.272  
 119581018.434                          45.000                                  
                                                                                
                  22370094.232    93007479.360       -2799.488          37.500  
                                                                                
                                                                                
                                                                                
                                                
                                                                  19289736.301  
 102933776.747                          54.000                                  
                                                                                
                  19289743.231    80059631.954        -638.631          51.000  
                                                                                
                                                                                
                                                                                
                                                
                                                                  20770936.107  
 111188515.815                          48.000                                  
                                                                                
                  20770942.917    86479974.850        2073.554          46.750  
                                                                                
                                                                                
                                                                                
                                                
                                                                  20875566.888  
 111552759.601                          47.500                                  
                                                                                
                  20875574.758    86763277.745       -1077.410          40.750  
                                                                                
                                                                                
                                                                                
                                                
                                                                  21084476.351  
 112629539.996                          43.750                                  
                                                                                
                  21084485.721    87600763.209        2339.081          44.250  
                                                                                
                                                                                
                                                                                
                                                
                                                                  23102647.641  
 123626936.241                          42.000                                  
                                                                                
                  23102654.581    96154280.851       -3483.093          39.250  
                                                                                
                                                                                
                                                                                
                                                
                                                                  21131333.165  
 112800520.443                          48.250                                  
                                                                                
                  21131341.605    87733744.594       -1418.574          45.750  
                                                                                
                                                                                
                                                                                
                                                
                                                                  22586256.841  
 120821264.034                          44.500                                  
                                                                                
                  22586263.481    93972098.196        1997.057          41.000  
                                                                                
                                                                                
                                                                                
                                                
 14  8 29 20  2 33.0000000  0 22G 1G 4G 6G 9G11G12G13G14G17G20G23G25
                                G31G32R 1R 2R 3R11R12R17R18R19
  21740215.441   114245682.116       -2820.193          50.500                  
 114245682.116       -2820.193          50.500                                  
                                                                                
                  21740220.161    89022629.137       -2197.546          39.750  
  21740219.091    85313352.504       -2105.966          45.000                  
                                                  21740215.441                  
                                                                                
                                                
  20892020.917   109788360.123        -630.394          53.500                  
 109788360.123        -630.394          53.500                                  
                                                                                
                  20892021.977    85549380.240        -491.184          43.000  
                                                                                
                                                  20892020.917                  
                                                                                
                                                
  24512234.052   128812669.433        3276.395          43.000                  
 128812669.433        3276.395          43.000                                  
                                                                                
                  24512238.862   100373513.426        2553.042          27.000  
  24512240.862    96191276.689        2446.635          37.750                  
                                                  24512234.052                  
                                                                                
                                                
  20406821.199   107238684.890         701.846          55.000                  
 107238684.890         701.846          55.000                                  
                                                                                
                  20406823.569    83562620.969         546.890          48.750  
                                                                                
                                                  20406821.199                  
                                                                                
                                                
  24281544.158   127600429.687       -3906.982          42.250                  
 127600429.687       -3906.982          42.250                                  
                                                                                
                  24281545.958    99428925.328       -3044.533          21.000  
                                                                                
                                                  24281544.158                  
                                                                                
                                                
  24971649.083   131226880.608       -1817.487          36.500                  
 131226880.608       -1817.487          36.500                                  
                                                                                
                  24971648.683   102254710.398       -1416.389          11.250  
                                                                                
                                                  24971649.083                  
                                                                                
                                                
  24295914.203   127676137.395        3559.570          39.750                  
 127676137.395        3559.570          39.750                                  
                                                                                
                  24295917.823    99487733.508        2773.579          22.250  
                                                                                
                                                  24295914.203                  
                                                                                
                                                
  25055252.164   131666339.645       -3565.234          37.750                  
 131666339.645       -3565.234          37.750                                  
                                                                                
                  25055251.574   102597167.817       -2778.048          16.000  
                                                                                
                                                  25055252.164                  
                                                                                
                                                
  23760710.155   124863389.763       -1767.878          46.000                  
 124863389.763       -1767.878          46.000                                  
                                                                                
                  23760710.945    97296161.263       -1377.609          30.000  
                                                                                
                                                  23760710.155                  
                                                                                
                                                
  20155844.261   105919792.486         802.861          52.250                  
 105919792.486         802.861          52.250                                  
                                                                                
                  20155843.841    82534913.381         625.605          46.000  
                                                                                
                                                  20155844.261                  
                                                                                
                                                
  22201756.540   116671053.832        2658.134          49.500                  
 116671053.832        2658.134          49.500                                  
                                                                                
                  22201754.910    90912547.958        2071.254          38.750  
                                                                                
                                                  22201756.540                  
                                                                                
                                                
  24236037.638   127361264.433         -60.347          37.250                  
 127361264.433         -60.347          37.250                                  
                                                                                
                  24236040.118    99242530.163         -47.034          18.750  
  24236044.428    95107425.338         -45.110          37.250                  
                                                  24236037.638                  
                                                                                
                                                
  21419481.290   112560199.002        -513.722          52.500                  
 112560199.002        -513.722          52.500                                  
                                                                                
                  21419481.040    87709261.031        -400.295          42.000  
                                                                                
                                                  21419481.290                  
                                                                                
                                                
  21116768.979   110969455.643       -2055.143          53.000                  
 110969455.643       -2055.143          53.000                                  
                                                                                
                  21116769.349    86469714.287       -1601.405          43.250  
                                                                                
                                                  21116768.979                  
                                                                                
                                                
                                                                  22370760.090  
 119584617.987                          45.000                                  
                                                                                
                  22370768.750    93010279.015       -2800.010          36.250  
                                                                                
                                                                                
                                                                                
                                                
                                                                  19289890.045  
 102934598.286                          54.000                                  
                                                                                
                  19289897.345    80060270.930        -639.524          51.250  
                                                                                
                                                                                
                                                                                
                                                
                                                                  20770438.085  
 111185850.209                          47.750                                  
                                                                                
                  20770444.855    86477901.608        2072.829          46.750  
                                                                                
                                                                                
                                                                                
                                                
                                                                  20875826.113  
 111554145.385                          47.500                                  
                                                                                
                  20875833.743    86764355.568       -1078.487          41.250  
                                                                                
                                                                                
                                                                                
                                                
                                                                  21083913.340  
 112626533.229                          43.750                                  
                                                                                
                  21083922.700    87598424.620        2338.071          44.000  
                                                                                
                                                                                
                                                                                
                                                
                                                                  23103482.651  
 123631414.571                          41.750                                  
                                                                                
                  23103491.391    96157763.988       -3483.540          39.500  
                                                                                
                                                                                
                                                                                
                                                
                                                                  21131675.112  
 112802344.991                          48.250                                  
                                                                                
                  21131683.082    87735163.693       -1419.694          45.750  
                                                                                
                                                                                
                                                                                
                                                
                                                                  22585776.480  
 120818696.963                          44.500                                  
                                                                                
                  22585782.860    93970101.583        1996.030          41.000  
                                                                                
                                                                                
                                                                                
                                                
 14  8 29 20  2 34.0000000  0 22G 1G 4G 6G 9G11G12G13G14G17G20G23G25
                                G31G32R 1R 2R 3R11R12R17R18R19
  21740752.088   114248502.242       -2820.214          50.250                  
 114248502.242       -2820.214          50.250                                  
                                                                                
                  21740756.438    89024826.635       -2197.637          39.750  
  21740755.708    85315458.441       -2106.038          45.250                  
                                                  21740752.088                  
                                                                                
                                                
  20892140.834   109788990.488        -630.583          53.500                  
 109788990.488        -630.583          53.500                                  
                                                                                
                  20892141.864    85549871.426        -491.405          43.250  
                                                                                
                                                  20892140.834                  
                                                                                
                                                
  24511611.815   128809392.782        3276.684          43.000                  
 128809392.782        3276.684          43.000                                  
                                                                                
                  24511616.855   100370960.122        2553.300          27.000  
  24511616.565    96188829.816        2446.875          37.500                  
                                                  24511611.815                  
                                                                                
                                                
  20406687.743   107237982.964         701.746          55.250                  
 107237982.964         701.746          55.250                                  
                                                                                
                  20406689.943    83562074.011         546.794          48.750  
                                                                                
                                                  20406687.743                  
                                                                                
                                                
  24282289.253   127604336.395       -3906.583          42.250                  
 127604336.395       -3906.583          42.250                                  
                                                                                
                  24282289.613    99431969.506       -3044.306          21.000  
                                                                                
                                                  24282289.253                  
                                                                                
                                                
  24971991.875   131228697.743       -1817.457          36.000                  
 131228697.743       -1817.457          36.000                                  
                                                                                
                  24971994.375   102256126.345       -1416.367          11.250  
                                                                                
                                                  24971991.875                  
                                                                                
                                                
  24295238.159   127672577.592        3559.751          39.750                  
 127672577.592        3559.751          39.750                                  
                                                                                
                  24295239.459    99484959.600        2773.837          21.500  
                                                                                
                                                  24295238.159                  
                                                                                
                                                
  25055930.405   131669904.460       -3564.682          38.250                  
 131669904.460       -3564.682          38.250                                  
                                                                                
                  25055928.205   102599945.556       -2777.737          16.250  
                                                                                
                                                  25055930.405                  
                                                                                
                                                
  23761047.037   124865157.478       -1767.825          45.750                  
 124865157.478       -1767.825          45.750                                  
                                                                                
                  23761047.737    97297538.688       -1377.618          29.500  
                                                                                
                                                  23761047.037                  
                                                                                
                                                
  20155691.511   105918989.561         802.758          52.250                  
 105918989.561         802.758          52.250                                  
                                                                                
                  20155691.001    82534287.723         625.519          45.750  
                                                                                
                                                  20155691.511                  
                                                                                
                                                
  22201250.691   116668395.511        2658.303          49.500                  
 116668395.511        2658.303          49.500                                  
                                                                                
                  22201249.301    90910476.542        2071.395          38.250  
                                                                                
                                                  22201250.691                  
                                                                                
                                                
  24236050.376   127361325.055         -60.738          36.000                  
 127361325.055         -60.738          36.000                                  
                                                                                
                  24236049.886    99242577.397         -47.604          18.750  
  24236055.436    95107470.580         -45.413          36.250                  
                                                  24236050.376                  
                                                                                
                                                
  21419579.094   112560712.748        -513.972          52.500                  
 112560712.748        -513.972          52.500                                  
                                                                                
                  21419578.894    87709661.354        -400.534          42.250  
                                                                                
                                                  21419579.094                  
                                                                                
                                                
  21117159.345   110971510.598       -2055.068          53.000                  
 110971510.598       -2055.068          53.000                                  
                                                                                
                  21117160.775    86471315.543       -1601.392          43.000  
                                                                                
                                                  21117159.345                  
                                                                                
                                                
                                                                  22371433.747  
 119588217.803                          45.000                                  
                                                                                
                  22371442.117    93013078.873       -2799.902          36.500  
                                                                                
                                                                                
                                                                                
                                                
                                                                  19290044.106  
 102935420.423                          54.000                                  
                                                                                
                  19290051.226    80060910.366        -639.594          51.000  
                                                                                
                                                                                
                                                                                
                                                
                                                                  20769940.138  
 111183184.978                          47.750                                  
                                                                                
                  20769947.078    86475828.644        2072.888          46.750  
                                                                                
                                                                                
                                                                                
                                                
                                                                  20876085.492  
 111555532.117                          47.250                                  
                                                                                
                  20876093.632    86765434.141       -1078.835          41.000  
                                                                                
                                                                                
                                                                                
                                                
                                                                  21083350.881  
 112623527.148                          43.750                                  
                                                                                
                  21083359.961    87596086.557        2337.909          43.500  
                                                                                
                                                                                
                                                                                
                                                
                                                                  23104319.632  
 123635893.150                          42.250                                  
                                                                                
                  23104328.152    96161247.337       -3483.385          38.750  
                                                                                
                                                                                
                                                                                
                                                
                                                                  21132016.894  
 112804170.417                          48.250                                  
                                                                                
                  21132025.294    87736583.463       -1420.048          45.500  
                                                                                
                                                                                
                                                                                
                                                
                                                                  22585296.717  
 120816130.639                          44.500                                  
                                                                                
                  22585303.367    93968105.566        1995.764          40.750  
                                                                                
                                                                                
                                                                                
                                                
 14  8 29 20  2 35.0000000  0 22G 1G 4G 6G 9G11G12G13G14G17G20G23G25
                                G31G32R 1R 2R 3R11R12R17R18R19
  21741289.031   114251323.239       -2821.213          50.250                  
 114251323.239       -2821.213          50.250                                  
                                                                                
                  21741293.351    89027024.814       -2198.340          40.000  
  21741292.681    85317565.035       -2106.775          45.000                  
                                                  21741289.031                  
                                                                                
                                                
  20892261.317   109789621.960        -631.837          53.500                  
 109789621.960        -631.837          53.500                                  
                                                                                
                  20892262.027    85550363.486        -492.374          43.000  
                                                                                
                                                  20892261.317                  
                                                                                
                                                
  24510987.824   128806116.788        3275.824          42.500                  
 128806116.788        3275.824          42.500                                  
                                                                                
                  24510992.404   100368407.443        2552.520          26.750  
  24510993.464    96186383.479        2446.179          37.250                  
                                                  24510987.824                  
                                                                                
                                                
  20406554.506   107237281.975         700.679          55.000                  
 107237281.975         700.679          55.000                                  
                                                                                
                  20406556.646    83561527.787         545.992          48.750  
                                                                                
                                                  20406554.506                  
                                                                                
                                                
  24283031.581   127608243.566       -3907.260          42.000                  
 127608243.566       -3907.260          42.000                                  
                                                                                
                  24283033.461    99435014.050       -3044.671          21.500  
                                                                                
                                                  24283031.581                  
                                                                                
                                                
  24972337.667   131230515.901       -1818.383          35.000                  
 131230515.901       -1818.383          35.000                                  
                                                                                
                  24972341.117   102257543.146       -1416.926          10.500  
                                                                                
                                                  24972337.667                  
                                                                                
                                                
  24294561.110   127669018.334        3559.281          40.000                  
 127669018.334        3559.281          40.000                                  
                                                                                
                  24294561.350    99482186.144        2773.468          21.500  
                                                                                
                                                  24294561.110                  
                                                                                
                                                
  25056609.171   131673469.754       -3565.393          38.000                  
 131673469.754       -3565.393          38.000                                  
                                                                                
                  25056607.311   102602723.723       -2778.135          16.250  
                                                                                
                                                  25056609.171                  
                                                                                
                                                
  23761383.941   124866926.127       -1768.900          45.750                  
 124866926.127       -1768.900          45.750                                  
                                                                                
                  23761384.031    97298916.858       -1378.365          29.500  
                                                                                
                                                  23761383.941                  
                                                                                
                                                
  20155538.581   105918187.574         801.719          52.250                  
 105918187.574         801.719          52.250                                  
                                                                                
                  20155538.391    82533662.799         624.716          45.750  
                                                                                
                                                  20155538.581                  
                                                                                
                                                
  22200745.130   116665737.900        2657.428          49.500                  
 116665737.900        2657.428          49.500                                  
                                                                                
                  22200743.380    90908405.677        2070.716          38.000  
                                                                                
                                                  22200745.130                  
                                                                                
                                                
  24236061.004   127361386.694         -62.237          35.750                  
 127361386.694         -62.237          35.750                                  
                                                                                
                  24236064.504    99242625.442         -48.560          18.750  
  24236067.664    95107516.646         -46.480          36.500                  
                                                  24236061.004                  
                                                                                
                                                
  21419677.369   112561227.597        -515.203          52.500                  
 112561227.597        -515.203          52.500                                  
                                                                                
                  21419676.449    87710062.536        -401.458          42.250  
                                                                                
                                                  21419677.369                  
                                                                                
                                                
  21117551.150   110973566.346       -2055.938          52.750                  
 110973566.346       -2055.938          52.750                                  
                                                                                
                  21117551.880    86472917.427       -1602.021          43.000  
                                                                                
                                                  21117551.150                  
                                                                                
                                                
                                                                  22372106.898  
 119591818.203                          45.000                                  
                                                                                
                  22372115.318    93015879.182       -2800.325          36.750  
                                                                                
                                                                                
                                                                                
                                                
                                                                  19290198.279  
 102936243.526                          54.250                                  
                                                                                
                  19290205.529    80061550.560        -640.412          51.250  
                                                                                
                                                                                
                                                                                
                                                
                                                                  20769442.339  
 111180520.495                          47.750                                  
                                                                                
                  20769449.439    86473756.272        2072.243          46.750  
                                                                                
                                                                                
                                                                                
                                                
                                                                  20876345.424  
 111556920.195                          47.500                                  
                                                                                
                  20876353.334    86766513.759       -1080.049          40.750  
                                                                                
                                                                                
                                                                                
                                                
                                                                  21082788.201  
 112620522.107                          43.750                                  
                                                                                
                  21082797.101    87593749.300        2337.035          43.750  
                                                                                
                                                                                
                                                                                
                                                
                                                                  23105156.994  
 123640372.386                          41.750                                  
                                                                                
                  23105165.414    96164731.175       -3483.887          39.250  
                                                                                
                                                                                
                                                                                
                                                
                                                                  21132358.986  
 112805997.100                          48.500                                  
                                                                                
                  21132367.166    87738004.225       -1421.110          45.500  
                                                                                
                                                                                
                                                                                
                                                
                                                                  22584817.558  
 120813565.426                          44.500                                  
                                                                                
                  22584823.298    93966110.394        1994.907          40.750  
                                                                                
                                                                                
                                                                                
                                                
 14  8 29 20  2 36.0000000  0 22G 1G 4G 6G 9G11G12G13G14G17G20G23G25
                                G31G32R 1R 2R 3R11R12R17R18R19
  21741825.461   114254144.462       -2821.069          50.250                  
 114254144.462       -2821.069          50.250                                  
                                                                                
                  21741830.581    89029223.169       -2198.194          39.750  
  21741829.451    85319671.786       -2106.631          45.250                  
                                                  21741825.461                  
                                                                                
                                                
  20892381.153   109790253.897        -631.929          53.500                  
 109790253.897        -631.929          53.500                                  
                                                                                
                  20892382.063    85550855.907        -492.414          43.250  
                                                                                
                                                  20892381.153                  
                                                                                
                                                
  24510365.776   128802840.834        3276.167          42.500                  
 128802840.834        3276.167          42.500                                  
                                                                                
                  24510368.566   100365854.754        2552.855          27.250  
  24510369.636    96183937.150        2446.439          37.250                  
                                                  24510365.776                  
                                                                                
                                                
  20406420.901   107236581.264         700.840          55.250                  
 107236581.264         700.840          55.250                                  
                                                                                
                  20406423.191    83560981.779         546.121          48.750  
                                                                                
                                                  20406420.901                  
                                                                                
                                                
  24283774.889   127612150.616       -3906.843          42.250                  
 127612150.616       -3906.843          42.250                                  
                                                                                
                  24283773.799    99438058.470       -3044.210          21.500  
                                                                                
                                                  24283774.889                  
                                                                                
                                                
  24972687.135   131232334.366       -1818.241          34.500                  
 131232334.366       -1818.241          34.500                                  
                                                                                
                  24972686.845   102258960.091       -1416.911          10.500  
                                                                                
                                                  24972687.135                  
                                                                                
                                                
  24293883.172   127665458.947        3559.641          40.000                  
 127665458.947        3559.641          40.000                                  
                                                                                
                  24293884.982    99479412.638        2773.516          22.500  
                                                                                
                                                  24293883.172                  
                                                                                
                                                
  25057286.609   131677034.838       -3564.871          38.000                  
 131677034.838       -3564.871          38.000                                  
                                                                                
                  25057286.779   102605501.751       -2777.668          16.250  
                                                                                
                                                  25057286.609                  
                                                                                
                                                
  23761720.170   124868695.068       -1768.813          45.750                  
 124868695.068       -1768.813          45.750                                  
                                                                                
                  23761720.730    97300295.247       -1378.364          29.250  
                                                                                
                                                  23761720.170                  
                                                                                
                                                
  20155386.214   105917385.875         801.816          52.250                  
 105917385.875         801.816          52.250                                  
                                                                                
                  20155385.764    82533038.103         624.810          45.500  
                                                                                
                                                  20155386.214                  
                                                                                
                                                
  22200238.894   116663080.328        2657.803          49.500                  
 116663080.328        2657.803          49.500                                  
                                                                                
                  22200237.594    90906334.843        2071.034          38.000  
                                                                                
                                                  22200238.894                  
                                                                                
                                                
  24236071.095   127361448.777         -61.985          36.500                  
 127361448.777         -61.985          36.500                                  
                                                                                
                  24236076.025    99242673.802         -48.286          18.750  
  24236079.405    95107562.986         -46.311          36.500                  
                                                  24236071.095                  
                                                                                
                                                
  21419775.248   112561742.903        -515.260          52.500                  
 112561742.903        -515.260          52.500                                  
                                                                                
                  21419774.778    87710464.076        -401.517          42.000  
                                                                                
                                                  21419775.248                  
                                                                                
                                                
  21117942.103   110975622.266       -2055.774          52.750                  
 110975622.266       -2055.774          52.750                                  
                                                                                
                  21117943.283    86474519.433       -1601.843          43.250  
                                                                                
                                                  21117942.103                  
                                                                                
                                                
                                                                  22372780.557  
 119595418.564                          45.000                                  
                                                                                
                  22372789.717    93018679.464       -2799.983          36.250  
                                                                                
                                                                                
                                                                                
                                                
                                                                  19290352.712  
 102937066.914                          54.250                                  
                                                                                
                  19290359.672    80062190.971        -640.320          51.250  
                                                                                
                                                                                
                                                                                
                                                
                                                                  20768944.504  
 111177856.107                          47.750                                  
                                                                                
                  20768951.484    86471683.972        2072.441          47.000  
                                                                                
                                                                                
                                                                                
                                                
                                                                  20876605.208  
 111558308.924                          47.500                                  
                                                                                
                  20876613.408    86767593.885       -1080.200          40.750  
                                                                                
                                                                                
                                                                                
                                                
                                                                  21082225.706  
 112617517.479                          43.750                                  
                                                                                
                  21082235.426    87591412.369        2336.989          43.500  
                                                                                
                                                                                
                                                                                
                                                
                                                                  23105994.007  
 123644851.612                          41.750                                  
                                                                                
                  23106001.897    96168215.024       -3483.671          38.500  
                                                                                
                                                                                
                                                                                
                                                
                                                                  21132701.304  
 112807824.409                          48.500                                  
                                                                                
                  21132709.614    87739425.461       -1421.300          45.500  
                                                                                
                                                                                
                                                                                
                                                
                                                                  22584338.168  
 120811000.695                          44.750                                  
                                                                                
                  22584344.868    93964115.612        1994.870          41.000  
                                                                                
                                                                                
                                                                                
                                                
 14  8 29 20  2 37.0000000  0 22G 1G 4G 6G 9G11G12G13G14G17G20G23G25
                                G31G32R 1R 2R 3R11R12R17R18R19
  21742362.348   114256965.692       -2821.639          50.500                  
 114256965.692       -2821.639          50.500                                  
                                                                                
                  21742367.078    89031421.534       -2198.691          39.500  
  21742366.358    85321778.545       -2107.067          45.000                  
                                                  21742362.348                  
                                                                                
                                                
  20892501.697   109790886.076        -632.681          53.500                  
 109790886.076        -632.681          53.500                                  
                                                                                
                  20892502.847    85551348.513        -493.027          43.000  
                                                                                
                                                  20892501.697                  
                                                                                
                                                
  24509740.900   128799564.646        3275.773          42.500                  
 128799564.646        3275.773          42.500                                  
                                                                                
                  24509743.890   100363301.872        2552.765          27.250  
  24509746.260    96181490.658        2446.261          37.750                  
                                                  24509740.900                  
                                                                                
                                                
  20406287.898   107235880.621         700.169          55.250                  
 107235880.621         700.169          55.250                                  
                                                                                
                  20406289.878    83560435.823         545.596          48.500  
                                                                                
                                                  20406287.898                  
                                                                                
                                                
  24284517.946   127616057.229       -3906.749          42.250                  
 127616057.229       -3906.749          42.250                                  
                                                                                
                  24284520.946    99441102.599       -3044.250          21.500  
                                                                                
                                                  24284517.946                  
                                                                                
                                                
  24973027.178   131234153.035       -1819.088          35.250                  
 131234153.035       -1819.088          35.250                                  
                                                                                
                  24973028.448   102260377.140       -1417.303          10.750  
                                                                                
                                                  24973027.178                  
                                                                                
                                                
  24293206.969   127661899.148        3559.576          40.250                  
 127661899.148        3559.576          40.250                                  
                                                                                
                  24293208.499    99476638.755        2773.789          22.500  
                                                                                
                                                  24293206.969                  
                                                                                
                                                
  25057964.980   131680599.495       -3564.804          38.000                  
 131680599.495       -3564.804          38.000                                  
                                                                                
                  25057965.120   102608279.386       -2777.804          16.000  
                                                                                
                                                  25057964.980                  
                                                                                
                                                
  23762057.053   124870464.066       -1769.481          45.750                  
 124870464.066       -1769.481          45.750                                  
                                                                                
                  23762056.543    97301673.697       -1378.823          29.500  
                                                                                
                                                  23762057.053                  
                                                                                
                                                
  20155233.209   105916584.251         801.220          52.500                  
 105916584.251         801.220          52.500                                  
                                                                                
                  20155233.339    82532413.458         624.315          45.750  
                                                                                
                                                  20155233.209                  
                                                                                
                                                
  22199732.944   116660422.601        2657.420          49.750                  
 116660422.601        2657.420          49.750                                  
                                                                                
                  22199731.764    90904263.892        2070.710          38.250  
                                                                                
                                                  22199732.944                  
                                                                                
                                                
  24236084.007   127361511.086         -62.940          35.250                  
 127361511.086         -62.940          35.250                                  
                                                                                
                  24236088.147    99242722.431         -49.481          19.750  
  24236091.857    95107609.552         -47.197          36.250                  
                                                  24236084.007                  
                                                                                
                                                
  21419873.595   112562258.436        -516.023          52.750                  
 112562258.436        -516.023          52.750                                  
                                                                                
                  21419872.875    87710865.795        -402.105          42.250  
                                                                                
                                                  21419873.595                  
                                                                                
                                                
  21118333.794   110977678.077       -2056.180          52.750                  
 110977678.077       -2056.180          52.750                                  
                                                                                
                  21118334.414    86476121.376       -1602.231          43.500  
                                                                                
                                                  21118333.794                  
                                                                                
                                                
                                                                  22373453.634  
 119599018.636                          45.000                                  
                                                                                
                  22373463.144    93021479.518       -2800.211          36.750  
                                                                                
                                                                                
                                                                                
                                                
                                                                  19290506.920  
 102937890.353                          54.250                                  
                                                                                
                  19290514.140    80062831.428        -640.797          51.250  
                                                                                
                                                                                
                                                                                
                                                
                                                                  20768447.119  
 111175191.570                          47.750                                  
                                                                                
                  20768453.649    86469611.555        2072.151          46.750  
                                                                                
                                                                                
                                                                                
                                                
                                                                  20876865.544  
 111559698.111                          47.250                                  
                                                                                
                  20876873.534    86768674.354       -1081.001          41.250  
                                                                                
                                                                                
                                                                                
                                                
                                                                  21081663.147  
 112614513.048                          43.750                                  
                                                                                
                  21081672.787    87589075.594        2336.397          44.000  
                                                                                
                                                                                
                                                                                
                                                
                                                                  23106830.962  
 123649330.549                          41.750                                  
                                                                                
                  23106839.452    96171698.636       -3483.854          39.000  
                                                                                
                                                                                
                                                                                
                                                
                                                                  21133043.831  
 112809652.100                          48.250                                  
                                                                                
                  21133052.191    87740846.992       -1422.066          45.500  
                                                                                
                                                                                
                                                                                
                                                
                                                                  22583858.524  
 120808436.250                          44.500                                  
                                                                                
                  22583864.624    93962121.048        1994.056          41.250  
                                                                                
                                                                                
                                                                                
                                                
 14  8 29 20  2 38.0000000  0 22G 1G 4G 6G 9G11G12G13G14G17G20G23G25
                                G31G32R 1R 2R 3R11R12R17R18R19
  21742899.717   114259787.412       -2822.266          50.250                  
 114259787.412       -2822.266          50.250                                  
                                                                                
                  21742903.837    89033620.271       -2199.132          39.750  
  21742903.387    85323885.681       -2107.543          45.250                  
                                                  21742899.717                  
                                                                                
                                                
  20892622.139   109791518.985        -633.616          53.500                  
 109791518.985        -633.616          53.500                                  
                                                                                
                  20892623.209    85551841.691        -493.745          43.250  
                                                                                
                                                  20892622.139                  
                                                                                
                                                
  24509117.215   128796288.780        3275.439          42.750                  
 128796288.780        3275.439          42.750                                  
                                                                                
                  24509119.725   100360749.263        2552.377          26.750  
  24509122.865    96179044.397        2445.932          37.250                  
                                                  24509117.215                  
                                                                                
                                                
  20406154.805   107235180.533         699.493          55.250                  
 107235180.533         699.493          55.250                                  
                                                                                
                  20406156.605    83559890.299         545.040          48.750  
                                                                                
                                                  20406154.805                  
                                                                                
                                                
  24285261.647   127619964.022       -3907.151          41.750                  
 127619964.022       -3907.151          41.750                                  
                                                                                
                  24285264.837    99444146.817       -3044.315          21.500  
                                                                                
                                                  24285261.647                  
                                                                                
                                                
  24973379.017   131235972.261       -1819.958          34.750                  
 131235972.261       -1819.958          34.750                                  
                                                                                
                  24973377.627   102261794.708       -1418.191          10.750  
                                                                                
                                                  24973379.017                  
                                                                                
                                                
  24292530.154   127658339.577        3559.255          40.250                  
 127658339.577        3559.255          40.250                                  
                                                                                
                  24292530.464    99473865.093        2773.318          22.250  
                                                                                
                                                  24292530.154                  
                                                                                
                                                
  25058643.905   131684164.240       -3565.080          37.500                  
 131684164.240       -3565.080          37.500                                  
                                                                                
                  25058645.545   102611057.084       -2777.826          16.000  
                                                                                
                                                  25058643.905                  
                                                                                
                                                
  23762392.938   124872233.624       -1770.168          45.500                  
 124872233.624       -1770.168          45.500                                  
                                                                                
                  23762393.558    97303052.557       -1379.334          29.500  
                                                                                
                                                  23762392.938                  
                                                                                
                                                
  20155081.320   105915783.194         800.476          52.500                  
 105915783.194         800.476          52.500                                  
                                                                                
                  20155080.800    82531789.252         623.758          46.000  
                                                                                
                                                  20155081.320                  
                                                                                
                                                
  22199227.311   116657765.198        2656.947          49.500                  
 116657765.198        2656.947          49.500                                  
                                                                                
                  22199226.341    90902193.189        2070.313          38.250  
                                                                                
                                                  22199227.311                  
                                                                                
                                                
  24236096.209   127361574.101         -63.778          35.250                  
 127361574.101         -63.778          35.250                                  
                                                                                
                  24236098.129    99242771.399         -49.600          19.750  
  24236102.889    95107656.565         -47.599          36.750                  
                                                  24236096.209                  
                                                                                
                                                
  21419971.714   112562774.704        -516.974          52.500                  
 112562774.704        -516.974          52.500                                  
                                                                                
                  21419971.054    87711268.075        -402.814          42.250  
                                                                                
                                                  21419971.714                  
                                                                                
                                                
  21118725.176   110979734.314       -2056.757          53.000                  
 110979734.314       -2056.757          53.000                                  
                                                                                
                  21118725.736    86477723.636       -1602.691          43.250  
                                                                                
                                                  21118725.176                  
                                                                                
                                                
                                                                  22374127.410  
 119602618.946                          44.750                                  
                                                                                
                  22374136.110    93024279.749       -2800.517          36.250  
                                                                                
                                                                                
                                                                                
                                                
                                                                  19290661.437  
 102938714.383                          54.250                                  
                                                                                
                  19290668.377    80063472.337        -641.422          51.250  
                                                                                
                                                                                
                                                                                
                                                
                                                                  20767949.126  
 111172527.385                          47.750                                  
                                                                                
                  20767955.976    86467539.402        2071.799          47.000  
                                                                                
                                                                                
                                                                                
                                                
                                                                  20877125.416  
 111561088.243                          47.500                                  
                                                                                
                  20877133.976    86769755.569       -1081.859          41.000  
                                                                                
                                                                                
                                                                                
                                                
                                                                  21081100.848  
 112611509.304                          43.750                                  
                                                                                
                  21081110.648    87586739.356        2335.722          43.750  
                                                                                
                                                                                
                                                                                
                                                
                                                                  23107667.627  
 123653809.734                          41.500                                  
                                                                                
                  23107676.067    96175182.441       -3484.192          39.000  
                                                                                
                                                                                
                                                                                
                                                
                                                                  21133386.481  
 112811480.656                          48.500                                  
                                                                                
                  21133394.831    87742269.204       -1422.832          45.500  
                                                                                
                                                                                
                                                                                
                                                
                                                                  22583379.184  
 120805872.526                          44.250                                  
                                                                                
                  22583385.754    93960127.039        1993.449          41.000  
                                                                                
                                                                                
                                                                                
                                                
 14  8 29 20  2 39.0000000  0 22G 1G 4G 6G 9G11G12G13G14G17G20G23G25
                                G31G32R 1R 2R 3R11R12R17R18R19
  21743437.104   114262609.765       -2822.334          50.250                  
 114262609.765       -2822.334          50.250                                  
                                                                                
                  21743441.164    89035819.511       -2199.228          40.000  
  21743440.454    85325993.281       -2107.601          45.000                  
                                                  21743437.104                  
                                                                                
                                                
  20892742.910   109792152.740        -633.811          53.500                  
 109792152.740        -633.811          53.500                                  
                                                                                
                  20892743.780    85552335.528        -493.873          43.000  
                                                                                
                                                  20892742.910                  
                                                                                
                                                
  24508494.121   128793013.314        3275.676          42.250                  
 128793013.314        3275.676          42.250                                  
                                                                                
                  24508497.891   100358196.998        2552.410          27.250  
  24508499.591    96176598.452        2446.062          37.500                  
                                                  24508494.121                  
                                                                                
                                                
  20406021.556   107234481.113         699.426          55.500                  
 107234481.113         699.426          55.500                                  
                                                                                
                  20406023.606    83559345.297         545.019          48.750  
                                                                                
                                                  20406021.556                  
                                                                                
                                                
  24286005.813   127623871.009       -3906.823          41.750                  
 127623871.009       -3906.823          41.750                                  
                                                                                
                  24286007.923    99447191.237       -3044.146          21.500  
                                                                                
                                                  24286005.813                  
                                                                                
                                                
  24973724.339   131237792.175       -1819.988          34.000                  
 131237792.175       -1819.988          34.000                                  
                                                                                
                  24973722.419   102263212.862       -1418.268          10.750  
                                                                                
                                                  24973724.339                  
                                                                                
                                                
  24291851.622   127654780.274        3559.578          40.500                  
 127654780.274        3559.578          40.500                                  
                                                                                
                  24291852.312    99471091.604        2773.677          21.000  
                                                                                
                                                  24291851.622                  
                                                                                
                                                
  25059320.716   131687729.203       -3564.661          37.500                  
 131687729.203       -3564.661          37.500                                  
                                                                                
                  25059323.766   102613834.945       -2777.640          16.000  
                                                                                
                                                  25059320.716                  
                                                                                
                                                
  23762730.228   124874003.856       -1770.200          45.500                  
 124874003.856       -1770.200          45.500                                  
                                                                                
                  23762731.368    97304431.952       -1379.333          29.250  
                                                                                
                                                  23762730.228                  
                                                                                
                                                
  20154928.785   105914982.804         800.392          52.500                  
 105914982.804         800.392          52.500                                  
                                                                                
                  20154928.615    82531165.574         623.715          45.500  
                                                                                
                                                  20154928.785                  
                                                                                
                                                
  22198721.663   116655108.252        2657.059          49.750                  
 116655108.252        2657.059          49.750                                  
                                                                                
                  22198720.253    90900122.840        2070.465          38.500  
                                                                                
                                                  22198721.663                  
                                                                                
                                                
  24236108.033   127361637.931         -63.994          35.250                  
 127361637.931         -63.994          35.250                                  
                                                                                
                  24236112.733    99242821.180         -49.756          19.750  
  24236115.523    95107704.235         -47.771          36.250                  
                                                  24236108.033                  
                                                                                
                                                
  21420069.743   112563291.817        -517.196          52.500                  
 112563291.817        -517.196          52.500                                  
                                                                                
                  21420069.863    87711671.024        -402.992          42.500  
                                                                                
                                                  21420069.743                  
                                                                                
                                                
  21119116.555   110981791.088       -2056.724          53.000                  
 110981791.088       -2056.724          53.000                                  
                                                                                
                  21119116.875    86479326.317       -1602.618          43.500  
                                                                                
                                                  21119116.555                  
                                                                                
                                                
                                                                  22374800.785  
 119606219.599                          45.000                                  
                                                                                
                  22374809.965    93027080.253       -2800.310          36.000  
                                                                                
                                                                                
                                                                                
                                                
                                                                  19290816.049  
 102939539.100                          54.250                                  
                                                                                
                  19290823.039    80064113.783        -641.413          51.250  
                                                                                
                                                                                
                                                                                
                                                
                                                                  20767451.654  
 111169863.656                          47.750                                  
                                                                                
                  20767458.714    86465467.615        2071.902          46.750  
                                                                                
                                                                                
                                                                                
                                                
                                                                  20877385.686  
 111562479.440                          47.250                                  
                                                                                
                  20877393.826    86770837.609       -1082.189          40.750  
                                                                                
                                                                                
                                                                                
                                                
                                                                  21080538.553  
 112608506.380                          43.500                                  
                                                                                
                  21080548.033    87584403.746        2335.612          43.750  
                                                                                
                                                                                
                                                                                
                                                
                                                                  23108505.341  
 123658289.238                          41.500                                  
                                                                                
                  23108513.031    96178666.496       -3483.849          39.000  
                                                                                
                                                                                
                                                                                
                                                
                                                                  21133729.157  
 112813310.220                          48.750                                  
                                                                                
                  21133737.167    87743692.206       -1423.109          45.750  
                                                                                
                                                                                
                                                                                
                                                
                                                                  22582900.238  
 120803309.680                          44.750                                  
                                                                                
                  22582906.568    93958133.719        1993.342          40.750  
                                                                                
                                                                                
                                                                                
                                                
 14  8 29 20  2 40.0000000  0 22G 1G 4G 6G 9G11G12G13G14G17G20G23G25
                                G31G32R 1R 2R 3R11R12R17R18R19
  21743974.017   114265432.469       -2823.100          50.500                  
 114265432.469       -2823.100          50.500                                  
                                                                                
                  21743978.237    89038019.012       -2199.856          39.250  
  21743977.467    85328101.135       -2108.206          45.250                  
                                                  21743974.017                  
                                                                                
                                                
  20892863.885   109792787.105        -634.898          53.500                  
 109792787.105        -634.898          53.500                                  
                                                                                
                  20892864.555    85552829.830        -494.731          43.000  
                                                                                
                                                  20892863.885                  
                                                                                
                                                
  24507869.617   128789738.019        3275.064          42.250                  
 128789738.019        3275.064          42.250                                  
                                                                                
                  24507874.207   100355644.789        2551.967          26.500  
  24507876.537    96174152.596        2445.631          37.500                  
                                                  24507869.617                  
                                                                                
                                                
  20405888.161   107233782.121         698.529          55.500                  
 107233782.121         698.529          55.500                                  
                                                                                
                  20405890.541    83558800.630         544.309          48.750  
                                                                                
                                                  20405888.161                  
                                                                                
                                                
  24286748.861   127627778.000       -3907.216          42.000                  
 127627778.000       -3907.216          42.000                                  
                                                                                
                  24286747.971    99450235.624       -3044.500          21.500  
                                                                                
                                                  24286748.861                  
                                                                                
                                                
  24974070.222   131239612.590       -1820.898          34.750                  
 131239612.590       -1820.898          34.750                                  
                                                                                
                  24974070.562   102264631.351       -1418.838          10.750  
                                                                                
                                                  24974070.222                  
                                                                                
                                                
  24291172.559   127651220.958        3558.975          40.750                  
 127651220.958        3558.975          40.750                                  
                                                                                
                  24291175.609    99468318.165        2773.227          21.000  
                                                                                
                                                  24291172.559                  
                                                                                
                                                
  25060001.488   131691294.039       -3564.989          37.250                  
 131691294.039       -3564.989          37.250                                  
                                                                                
                  25060001.128   102616612.752       -2777.802          16.000  
                                                                                
                                                  25060001.488                  
                                                                                
                                                
  23763066.466   124875774.515       -1771.156          45.500                  
 124875774.515       -1771.156          45.500                                  
                                                                                
                  23763066.676    97305811.674       -1380.043          29.500  
                                                                                
                                                  23763066.466                  
                                                                                
                                                
  20154776.601   105914182.837         799.515          52.500                  
 105914182.837         799.515          52.500                                  
                                                                                
                  20154776.401    82530542.222         623.008          45.750  
                                                                                
                                                  20154776.601                  
                                                                                
                                                
  22198216.480   116652451.480        2656.457          49.750                  
 116652451.480        2656.457          49.750                                  
                                                                                
                  22198214.930    90898052.631        2069.990          38.500  
                                                                                
                                                  22198216.480                  
                                                                                
                                                
  24236122.719   127361702.321         -65.008          35.500                  
 127361702.321         -65.008          35.500                                  
                                                                                
                  24236126.129    99242871.359         -50.609          19.000  
  24236128.309    95107752.317         -48.507          36.250                  
                                                  24236122.719                  
                                                                                
                                                
  21420167.886   112563809.515        -518.271          52.250                  
 112563809.515        -518.271          52.250                                  
                                                                                
                  21420168.396    87712074.428        -403.826          42.250  
                                                                                
                                                  21420167.886                  
                                                                                
                                                
  21119508.039   110983848.138       -2057.426          53.000                  
 110983848.138       -2057.426          53.000                                  
                                                                                
                  21119508.319    86480929.201       -1603.222          43.500  
                                                                                
                                                  21119508.039                  
                                                                                
                                                
                                                                  22375474.865  
 119609820.368                          44.500                                  
                                                                                
                  22375483.285    93029880.859       -2800.842          36.500  
                                                                                
                                                                                
                                                                                
                                                
                                                                  19290970.595  
 102940364.236                          54.250                                  
                                                                                
                  19290977.625    80064755.557        -642.143          51.250  
                                                                                
                                                                                
                                                                                
                                                
                                                                  20766954.144  
 111167200.142                          47.750                                  
                                                                                
                  20766960.804    86463395.996        2071.360          47.000  
                                                                                
                                                                                
                                                                                
                                                
                                                                  20877646.259  
 111563871.448                          47.250                                  
                                                                                
                  20877653.979    86771920.287       -1083.215          41.250  
                                                                                
                                                                                
                                                                                
                                                
                                                                  21079976.970  
 112605504.020                          43.750                                  
                                                                                
                  21079986.560    87582068.585        2334.687          43.750  
                                                                                
                                                                                
                                                                                
                                                
                                                                  23109342.059  
 123662768.834                          41.750                                  
                                                                                
                  23109350.529    96182150.634       -3484.373          38.500  
                                                                                
                                                                                
                                                                                
                                                
                                                                  21134071.931  
 112815140.516                          48.750                                  
                                                                                
                  21134079.921    87745115.766       -1424.085          45.750  
                                                                                
                                                                                
                                                                                
                                                
                                                                  22582421.435  
 120800747.465                          44.500                                  
                                                                                
                  22582427.805    93956140.882        1992.442          41.250  
                                                                                
                                                                                
                                                                                
                                                
 14  8 29 20  2 41.0000000  0 22G 1G 4G 6G 9G11G12G13G14G17G20G23G25
                                G31G32R 1R 2R 3R11R12R17R18R19
  21744511.872   114268255.687       -2823.417          50.500                  
 114268255.687       -2823.417          50.500                                  
                                                                                
                  21744515.652    89040218.923       -2200.040          39.500  
  21744514.642    85330209.384       -2108.400          45.250                  
                                                  21744511.872                  
                                                                                
                                                
  20892984.102   109793422.210        -635.396          53.500                  
 109793422.210        -635.396          53.500                                  
                                                                                
                  20892985.042    85553324.719        -495.109          42.750  
                                                                                
                                                  20892984.102                  
                                                                                
                                                
  24507246.714   128786463.034        3274.940          42.500                  
 128786463.034        3274.940          42.500                                  
                                                                                
                  24507251.054   100353092.853        2551.924          27.000  
  24507252.934    96171706.988        2445.631          37.500                  
                                                  24507246.714                  
                                                                                
                                                
  20405755.335   107233083.699         698.187          55.500                  
 107233083.699         698.187          55.500                                  
                                                                                
                  20405757.615    83558256.402         544.053          48.750  
                                                                                
                                                  20405755.335                  
                                                                                
                                                
  24287492.328   127631685.115       -3907.006          41.750                  
 127631685.115       -3907.006          41.750                                  
                                                                                
                  24287494.258    99453280.152       -3044.403          21.000  
                                                                                
                                                  24287492.328                  
                                                                                
                                                
  24974416.170   131241433.664       -1821.423          35.500                  
 131241433.664       -1821.423          35.500                                  
                                                                                
                  24974418.690   102266050.347       -1419.036          10.000  
                                                                                
                                                  24974416.170                  
                                                                                
                                                
  24290495.277   127647661.864        3559.079          40.250                  
 127647661.864        3559.079          40.250                                  
                                                                                
                  24290495.857    99465544.782        2773.390          22.000  
                                                                                
                                                  24290495.277                  
                                                                                
                                                
  25060678.677   131694858.981       -3564.924          37.250                  
 131694858.981       -3564.924          37.250                                  
                                                                                
                  25060678.077   102619390.626       -2777.822          16.250  
                                                                                
                                                  25060678.677                  
                                                                                
                                                
  23763403.835   124877545.769       -1771.488          45.750                  
 124877545.769       -1771.488          45.750                                  
                                                                                
                  23763404.375    97307191.889       -1380.355          29.250  
                                                                                
                                                  23763403.835                  
                                                                                
                                                
  20154624.538   105913383.453         799.210          52.750                  
 105913383.453         799.210          52.750                                  
                                                                                
                  20154624.288    82529919.328         622.755          45.750  
                                                                                
                                                  20154624.538                  
                                                                                
                                                
  22197711.542   116649795.057        2656.413          49.750                  
 116649795.057        2656.413          49.750                                  
                                                                                
                  22197709.562    90895982.690        2069.948          38.500  
                                                                                
                                                  22197711.542                  
                                                                                
                                                
  24236134.789   127361767.470         -65.236          35.250                  
 127361767.470         -65.236          35.250                                  
                                                                                
                  24236135.589    99242922.109         -51.007          19.000  
  24236140.009    95107800.956         -48.855          37.000                  
                                                  24236134.789                  
                                                                                
                                                
  21420266.755   112564327.958        -518.678          52.250                  
 112564327.958        -518.678          52.250                                  
                                                                                
                  21420267.035    87712478.411        -404.178          42.500  
                                                                                
                                                  21420266.755                  
                                                                                
                                                
  21119899.364   110985905.624       -2057.613          53.250                  
 110985905.624       -2057.613          53.250                                  
                                                                                
                  21119900.134    86482532.443       -1603.361          43.500  
                                                                                
                                                  21119899.364                  
                                                                                
                                                
                                                                  22376148.410  
 119613421.385                          44.750                                  
                                                                                
                  22376156.930    93032681.640       -2800.836          36.500  
                                                                                
                                                                                
                                                                                
                                                
                                                                  19291125.403  
 102941189.940                          54.250                                  
                                                                                
                  19291132.333    80065397.770        -642.378          51.500  
                                                                                
                                                                                
                                                                                
                                                
                                                                  20766456.211  
 111164537.006                          47.750                                  
                                                                                
                  20766463.471    86461324.666        2071.303          46.750  
                                                                                
                                                                                
                                                                                
                                                
                                                                  20877907.052  
 111565264.427                          47.250                                  
                                                                                
                  20877914.912    86773003.719       -1083.745          41.000  
                                                                                
                                                                                
                                                                                
                                                
                                                                  21079414.376  
 112602502.350                          43.500                                  
                                                                                
                  21079423.946    87579733.951        2334.416          43.750  
                                                                                
                                                                                
                                                                                
                                                
                                                                  23110179.339  
 123667248.701                          41.500                                  
                                                                                
                  23110187.169    96185634.975       -3484.481          38.250  
                                                                                
                                                                                
                                                                                
                                                
                                                                  21134415.217  
 112816971.709                          48.750                                  
                                                                                
                  21134423.177    87746540.025       -1424.536          45.500  
                                                                                
                                                                                
                                                                                
                                                
                                                                  22581942.181  
 120798186.002                          44.250                                  
                                                                                
                  22581948.881    93954148.638        1992.058          41.250  
                                                                                
                                                                                
                                                                                
                                                
 14  8 29 20  2 42.0000000  0 22G 1G 4G 6G 9G11G12G13G14G17G20G23G25
                                G31G32R 1R 2R 3R11R12R17R18R19
  21745048.692   114271079.255       -2823.513          50.500                  
 114271079.255       -2823.513          50.500                                  
                                                                                
                  21745052.642    89042419.102       -2200.137          40.250  
  21745052.042    85332317.894       -2108.480          45.500                  
                                                  21745048.692                  
                                                                                
                                                
  20893105.278   109794057.899        -635.737          53.500                  
 109794057.899        -635.737          53.500                                  
                                                                                
                  20893106.018    85553820.062        -495.384          42.750  
                                                                                
                                                  20893105.278                  
                                                                                
                                                
  24506623.503   128783188.187        3274.989          42.250                  
 128783188.187        3274.989          42.250                                  
                                                                                
                  24506627.663   100350541.012        2551.958          26.500  
  24506629.683    96169261.501        2445.548          37.750                  
                                                  24506623.503                  
                                                                                
                                                
  20405622.631   107232385.684         698.010          55.500                  
 107232385.684         698.010          55.500                                  
                                                                                
                  20405624.811    83557712.498         543.894          48.750  
                                                                                
                                                  20405622.631                  
                                                                                
                                                
  24288235.385   127635592.218       -3906.862          41.750                  
 127635592.218       -3906.862          41.750                                  
                                                                                
                  24288235.035    99456324.681       -3044.610          21.000  
                                                                                
                                                  24288235.385                  
                                                                                
                                                
  24974761.777   131243255.224       -1821.894          34.250                  
 131243255.224       -1821.894          34.250                                  
                                                                                
                  24974763.937   102267469.727       -1419.672          10.000  
                                                                                
                                                  24974761.777                  
                                                                                
                                                
  24289818.538   127644102.764        3559.154          40.500                  
 127644102.764        3559.154          40.500                                  
                                                                                
                  24289818.988    99462771.464        2773.494          22.000  
                                                                                
                                                  24289818.538                  
                                                                                
                                                
  25061356.961   131698423.873       -3564.365          36.750                  
 131698423.873       -3564.365          36.750                                  
                                                                                
                  25061356.371   102622168.480       -2777.622          16.250  
                                                                                
                                                  25061356.961                  
                                                                                
                                                
  23763741.308   124879317.409       -1771.684          45.750                  
 124879317.409       -1771.684          45.750                                  
                                                                                
                  23763742.248    97308572.372       -1380.464          29.250  
                                                                                
                                                  23763741.308                  
                                                                                
                                                
  20154472.432   105912584.475         798.982          52.750                  
 105912584.475         798.982          52.750                                  
                                                                                
                  20154472.152    82529296.752         622.577          45.500  
                                                                                
                                                  20154472.432                  
                                                                                
                                                
  22197205.672   116647138.833        2656.368          49.500                  
 116647138.833        2656.368          49.500                                  
                                                                                
                  22197204.252    90893912.909        2069.882          38.250  
                                                                                
                                                  22197205.672                  
                                                                                
                                                
  24236145.546   127361833.152         -65.640          34.750                  
 127361833.152         -65.640          34.750                                  
                                                                                
                  24236148.406    99242973.264         -50.926          19.000  
  24236152.466    95107850.001         -49.027          36.250                  
                                                  24236145.546                  
                                                                                
                                                
  21420365.222   112564846.989        -519.085          52.250                  
 112564846.989        -519.085          52.250                                  
                                                                                
                  21420365.692    87712882.853        -404.501          42.500  
                                                                                
                                                  21420365.222                  
                                                                                
                                                
  21120290.788   110987963.378       -2057.646          53.250                  
 110987963.378       -2057.646          53.250                                  
                                                                                
                  21120291.378    86484135.891       -1603.372          43.250  
                                                                                
                                                  21120290.788                  
                                                                                
                                                
                                                                  22376822.138  
 119617022.482                          44.750                                  
                                                                                
                  22376830.968    93035482.492       -2800.694          36.500  
                                                                                
                                                                                
                                                                                
                                                
                                                                  19291280.225  
 102942016.059                          54.000                                  
                                                                                
                  19291287.345    80066040.309        -642.557          51.250  
                                                                                
                                                                                
                                                                                
                                                
                                                                  20765958.850  
 111161874.112                          47.750                                  
                                                                                
                  20765965.870    86459253.526        2071.204          46.750  
                                                                                
                                                                                
                                                                                
                                                
                                                                  20878167.926  
 111566658.234                          47.500                                  
                                                                                
                  20878175.626    86774087.790       -1084.243          41.000  
                                                                                
                                                                                
                                                                                
                                                
                                                                  21078852.612  
 112599501.237                          43.750                                  
                                                                                
                  21078862.362    87577399.752        2334.168          44.000  
                                                                                
                                                                                
                                                                                
                                                
                                                                  23111016.555  
 123671728.626                          41.750                                  
                                                                                
                  23111024.505    96189119.355       -3484.253          38.500  
                                                                                
                                                                                
                                                                                
                                                
                                                                  21134758.562  
 112818803.667                          48.750                                  
                                                                                
                  21134766.652    87747964.880       -1425.028          45.750  
                                                                                
                                                                                
                                                                                
                                                
                                                                  22581463.824  
 120795625.153                          44.500                                  
                                                                                
                  22581470.124    93952156.865        1991.725          41.500  
                                                                                
                                                                                
                                                                                
                                                
