     2.12           OBSERVATION DATA    M (MIXED)           RINEX VERSION / TYPE
JPS2RIN v.2.0.99    JAVAD GNSS          20150609 091731 UTC PGM / RUN BY / DATE
-Unknown-           -Unknown-                               OBSERVER / AGENCY
ifz-data-0                                                  MARKER NAME
00L8XRYFXCC213FJTMVBJAVAD TR_G3T ALPHA  3.4.14 Jan,29,2014  REC # / TYPE / VERS
  2850405.7127  2193547.7167  5249830.2977                  APPROX POSITION XYZ
-Unknown-           -Unknown-                               ANT # / TYPE
        0.0000        0.0000        0.0000                  ANTENNA: DELTA H/E/N
     1     1                                                WAVELENGTH FACT L1/2
    23    P1    L1    S1    P2    L2    D2    S2    C5    L5# / TYPES OF OBSERV
          D5    S5    CA    LA    DA    SA    CC    LC    DC# / TYPES OF OBSERV
          SC    CD    LD    DD    SD                        # / TYPES OF OBSERV
     1.000                                                  INTERVAL
  2014     8    29    20     2   22.0000000     GPS         TIME OF FIRST OBS
  2014     8    29    20     3   51.0000000     GPS         TIME OF LAST OBS
    16                                                      LEAP SECONDS
G LA   0.00000  14 G01 G04 G06 G09 G11 G12 G13 G14 G17 G20  SYS / PHASE SHIFT
                   G23 G25 G31 G32                          SYS / PHASE SHIFT
G L1  -0.25000  14 G01 G04 G06 G09 G11 G12 G13 G14 G17 G20  SYS / PHASE SHIFT
                   G23 G25 G31 G32                          SYS / PHASE SHIFT
G LC   0.25000  06 G01 G06 G12 G17 G25 G31                  SYS / PHASE SHIFT
G L2   0.00000  14 G01 G04 G06 G09 G11 G12 G13 G14 G17 G20  SYS / PHASE SHIFT
                   G23 G25 G31 G32                          SYS / PHASE SHIFT
G L5   0.00000  03 G01 G06 G25                              SYS / PHASE SHIFT
R LA   0.00000  08 R01 R02 R03 R11 R12 R17 R18 R19          SYS / PHASE SHIFT
R L1  -0.25000  08 R01 R02 R03 R11 R12 R17 R18 R19          SYS / PHASE SHIFT
R LD   0.25000  08 R01 R02 R03 R11 R12 R17 R18 R19          SYS / PHASE SHIFT
R L2   0.00000  08 R01 R02 R03 R11 R12 R17 R18 R19          SYS / PHASE SHIFT
    22                                                      # OF SATELLITES
   G 1    90    90    90    90    90    90    90    90    90PRN / # OF OBS
          90    90    90    90    90    90    90    90    90PRN / # OF OBS
          90     0     0     0     0                        PRN / # OF OBS
   G 4    90    90    90    90    90    90    90     0     0PRN / # OF OBS
           0     0    90    90    90    90     0     0     0PRN / # OF OBS
           0     0     0     0     0                        PRN / # OF OBS
   G 6    90    90    90    90    90    90    90    90    90PRN / # OF OBS
          90    90    90    90    90    90    90    90    90PRN / # OF OBS
          90     0     0     0     0                        PRN / # OF OBS
   G 9    90    90    90    90    90    90    90     0     0PRN / # OF OBS
           0     0    90    90    90    90     0     0     0PRN / # OF OBS
           0     0     0     0     0                        PRN / # OF OBS
   G11    90    90    90    90    90    90    90     0     0PRN / # OF OBS
           0     0    90    90    90    90     0     0     0PRN / # OF OBS
           0     0     0     0     0                        PRN / # OF OBS
   G12    89    89    89    89    89    89    89     0     0PRN / # OF OBS
           0     0    90    90    90    90    90    90    90PRN / # OF OBS
          90     0     0     0     0                        PRN / # OF OBS
   G13    90    90    90    90    90    90    90     0     0PRN / # OF OBS
           0     0    90    90    90    90     0     0     0PRN / # OF OBS
           0     0     0     0     0                        PRN / # OF OBS
   G14    90    90    90    90    90    90    90     0     0PRN / # OF OBS
           0     0    90    90    90    90     0     0     0PRN / # OF OBS
           0     0     0     0     0                        PRN / # OF OBS
   G17    90    90    90    90    90    90    90     0     0PRN / # OF OBS
           0     0    90    90    90    90    90    90    90PRN / # OF OBS
          90     0     0     0     0                        PRN / # OF OBS
   G20    90    90    90    90    90    90    90     0     0PRN / # OF OBS
           0     0    90    90    90    90     0     0     0PRN / # OF OBS
           0     0     0     0     0                        PRN / # OF OBS
   G23    90    90    90    90    90    90    90     0     0PRN / # OF OBS
           0     0    90    90    90    90     0     0     0PRN / # OF OBS
           0     0     0     0     0                        PRN / # OF OBS
   G25    90    90    90    90    90    90    90    90    90PRN / # OF OBS
          90    90    90    90    90    90    90    90    90PRN / # OF OBS
          90     0     0     0     0                        PRN / # OF OBS
   G31    90    90    90    90    90    90    90     0     0PRN / # OF OBS
           0     0    90    90    90    90    90    90    90PRN / # OF OBS
          90     0     0     0     0                        PRN / # OF OBS
   G32    90    90    90    90    90    90    90     0     0PRN / # OF OBS
           0     0    90    90    90    90     0     0     0PRN / # OF OBS
           0     0     0     0     0                        PRN / # OF OBS
   R 1    90    90    90    90    90    90    90     0     0PRN / # OF OBS
           0     0    90    90    90    90     0     0     0PRN / # OF OBS
           0    90    90    90    90                        PRN / # OF OBS
   R 2    90    90    90    90    90    90    90     0     0PRN / # OF OBS
           0     0    90    90    90    90     0     0     0PRN / # OF OBS
           0    90    90    90    90                        PRN / # OF OBS
   R 3    90    90    90    90    90    90    90     0     0PRN / # OF OBS
           0     0    90    90    90    90     0     0     0PRN / # OF OBS
           0    90    90    90    90                        PRN / # OF OBS
   R11    90    90    90    90    90    90    90     0     0PRN / # OF OBS
           0     0    90    90    90    90     0     0     0PRN / # OF OBS
           0    90    90    90    90                        PRN / # OF OBS
   R12    90    90    90    90    90    90    90     0     0PRN / # OF OBS
           0     0    90    90    90    90     0     0     0PRN / # OF OBS
           0    90    90    90    90                        PRN / # OF OBS
   R17    90    90    90    90    90    90    90     0     0PRN / # OF OBS
           0     0    90    90    90    90     0     0     0PRN / # OF OBS
           0    90    90    90    90                        PRN / # OF OBS
   R18    90    90    90    90    90    90    90     0     0PRN / # OF OBS
           0     0    90    90    90    90     0     0     0PRN / # OF OBS
           0    90    90    90    90                        PRN / # OF OBS
   R19    90    90    90    90    90    90    90     0     0PRN / # OF OBS
           0     0    90    90    90    90     0     0     0PRN / # OF OBS
           0    90    90    90    90                        PRN / # OF OBS
                                                            END OF HEADER
 14  8 29 20  2 22.0000000  0 22G23G11R12G25R19R17G13R 2R18G 6G 9G14-0.000193463
                                G12G20G 4G32G17R11G 1G31R 3R 1
  22207324.105   116700342.172 6        38.500    22207323.965    90935348.784 6
      2073.708          38.500
                  22207324.645   116700314.904 8      2661.172          49.250


  24273366.277   127557471.124 3        21.250    24273370.037    99395443.939 3
     -3043.883          21.250
                  24273368.787   127557461.837 6     -3906.284          41.500


  21090111.731   112659643.795 7        43.750    21090122.081    87624177.274 7
      2343.484          43.750
                  21090111.751   112659643.541 7      3013.123          45.000
                                                                  21090121.181
  87624159.017 7      2343.495          45.500
  24235918.655   127360625.844 3        22.000    24235919.885    99242045.576 3
       -41.704          22.000    24235925.865    95106960.942 6       -39.898
        36.750    24235919.175   127360642.562 6       -53.500          37.500
  24235924.255    99242048.340 6       -41.636          40.500

  22591063.022   120846973.892 7        44.750    22591069.402    93992094.716 6
      2002.065          41.250
                  22591063.122   120846989.627 7      2574.036          45.750
                                                                  22591069.092
  93992099.472 7      2002.057          42.000
  23094279.320   123582163.443 6        41.750    23094288.740    96119457.577 6
     -3481.852          39.250
                  23094279.000   123582172.179 7     -4476.688          42.000
                                                                  23094288.610
  96119476.326 6     -3481.836          40.250
  24303368.632   127715086.828 3        21.750    24303369.042    99518252.572 3
      2774.898          21.750
                  24303368.122   127715303.595 6      3560.688          40.750


  19288202.058   102925590.343 9        54.000    19288208.928    80053264.739 8
      -635.074          51.250
                  19288202.578   102926013.096 9      -816.525          55.000
                                                                  19288209.268
  80053264.496 8      -635.075          52.250
  21127923.582   112782321.486 8        48.250    21127932.152    87719589.857 7
     -1412.586          45.250
                  21127923.642   112782211.222 8     -1816.205          48.500
                                                                  21127932.532
  87719595.603 7     -1412.587          46.500
  24519096.621   128848734.141 4        27.000    24519102.811   100401612.399 4
      2555.207          27.000    24519102.011    96218204.899 6      2448.720
        37.500    24519097.531   128848729.871 7      3279.137          43.000
  24519101.121   100401615.197 7      2555.204          43.000

  20408296.923   107246425.851 8        48.500    20408299.273    83568664.374 8
       551.262          48.500
                  20408297.293   107246440.600 9       707.448          54.250


  25047786.306   131627124.264 2        16.250    25047789.976   102566614.105 2
     -2777.932          16.250
                  25047788.396   131627129.035 6     -3565.007          37.250


  24967850.690   131206929.156 1        10.000    24967852.200   102239164.392 1
     -1411.260          10.000
                  24967846.980   131206929.917 5     -1811.133          33.750
  24967853.700   102239170.153 5     -1411.063          33.500

  20157530.433   105928643.842 7        45.500    20157531.143    82541822.802 7
       629.990          45.500
                  20157531.583   105928659.577 8       808.481          50.750


  20890709.748   109781471.707 7        43.000    20890711.088    85544013.222 7
      -485.319          43.000
                  20890710.458   109781472.444 8      -622.839          53.500


  21112471.322   110946864.574 7        43.250    21112473.092    86452120.010 7
     -1598.238          43.250
                  21112472.722   110946876.319 8     -2051.090          52.500


  23757016.721   124843991.928 4        29.500    23757018.261    97281036.525 4
     -1373.195          29.500
                  23757017.521   124843979.676 7     -1762.178          45.500
  23757017.971    97281031.283 6     -1373.125          41.000

  20872983.095   111538951.574 7        47.500    20872991.225    86752538.161 6
     -1070.828          41.000
                  20872983.475   111538972.320 8     -1376.798          48.750
                                                                  20872989.495
  86752523.901 7     -1070.838          42.750
  21734318.190   114214694.796 6        39.750    21734322.780    88998480.652 6
     -2193.697          39.750    21734322.120    85290210.208 7     -2102.317
        45.250    21734318.350   114214691.550 8     -2815.305          50.500
  21734322.300    88998473.423 8     -2193.731          49.750

  21418414.187   112554593.935 7        42.250    21418414.287    87704893.252 7
      -394.544          42.250
                  21418414.847   112554593.690 8      -506.347          52.250
  21418414.477    87704900.032 8      -394.566          49.500

  20775919.191   111215189.225 8        48.000    20775926.011    86500720.823 7
      2075.522          47.000
                  20775919.851   111215193.970 8      2668.481          48.750
                                                                  20775925.131
  86500746.579 7      2075.521          47.750
  22363355.078   119545033.240 7        44.750    22363364.448    92979490.888 6
     -2798.528          37.000
                  22363355.758   119545035.970 7     -3598.092          45.500
                                                                  22363361.828
  92979500.633 6     -2798.544          38.250
 14  8 29 20  2 23.0000000  0 22G23G11R12G25R19R17G13R 2R18G 6G 9G14-0.000193392
                                G12G20G 4G32G17R11G 1G31R 3R 1
  22206817.573   116697680.620 6        38.500    22206816.913    90933274.855 6
      2074.002          38.500
                  22206818.323   116697653.355 8      2661.625          49.250


  24274110.316   127561376.863 3        21.250    24274113.376    99398487.328 3
     -3043.345          21.250
                  24274112.656   127561367.589 6     -3905.606          41.750


  21089547.647   112656630.508 7        44.000    21089557.227    87621833.609 7
      2343.595          44.000
                  21089545.827   112656630.244 7      3013.241          45.000
                                                                  21089557.197
  87621815.359 7      2343.575          45.500
  24235929.058   127360678.945 3        22.000    24235931.838    99242086.984 3
       -41.360          22.000    24235936.148    95107000.633 6       -39.682
        37.000    24235929.998   127360695.719 6       -53.362          37.750
  24235934.358    99242089.744 6       -41.371          40.750

  22590582.091   120844399.703 7        45.000    22590588.451    93990092.568 6
      2002.102          41.250
                  22590582.111   120844415.445 7      2574.151          45.750
                                                                  22590587.921
  93990097.314 7      2002.091          42.000
  23095116.025   123586639.807 7        42.250    23095124.625    96122939.191 6
     -3481.508          39.750
                  23095116.195   123586648.555 6     -4476.240          41.750
                                                                  23095125.355
  96122957.937 6     -3481.500          40.750
  24302690.905   127711525.676 3        22.250    24302693.935    99515477.708 3
      2774.937          22.250
                  24302691.605   127711742.463 6      3561.371          40.500


  19288355.042   102926406.636 9        54.250    19288362.122    80053899.638 8
      -634.938          51.250
                  19288355.472   102926829.391 9      -816.294          55.250
                                                                  19288361.972
  80053899.392 8      -634.938          52.000
  21128263.940   112784137.585 8        48.250    21128272.110    87721002.377 7
     -1412.677          45.750
                  21128264.260   112784027.337 8     -1816.282          48.500
                                                                  21128273.300
  87721008.129 7     -1412.672          46.750
  24518472.966   128845454.656 4        27.000    24518476.856   100399056.981 4
      2555.431          27.000    24518477.726    96215755.927 6      2449.068
        37.000    24518473.066   128845450.391 7      3279.588          42.750
  24518477.406   100399059.738 7      2555.551          42.250

  20408162.236   107245718.200 8        48.750    20408164.556    83568112.955 8
       551.395          48.750
                  20408162.356   107245732.948 9       707.638          54.250


  25048465.376   131630688.674 2        15.250    25048469.326   102569391.528 2
     -2777.086          15.250
                  25048466.886   131630693.465 6     -3564.158          37.000


  24968195.364   131208739.971 1        10.000    24968196.344   102240575.476 1
     -1410.931          10.000
                  24968194.164   131208740.673 5     -1810.621          34.000
  24968198.264   102240581.191 5     -1410.866          33.250

  20157376.826   105927835.117 7        46.000    20157377.356    82541192.629 7
       630.155          46.000
                  20157377.706   105927850.856 8       808.688          51.000


  20890828.492   109782094.382 7        43.000    20890829.732    85544498.419 7
      -485.290          43.000
                  20890828.942   109782095.119 8      -622.810          53.500


  21112861.713   110948915.349 7        43.750    21112863.213    86453718.009 7
     -1598.005          43.750
                  21112862.683   110948927.088 8     -2050.769          52.750


  23757351.811   124845753.898 4        29.750    23757354.401    97282409.437 4
     -1372.910          29.750
                  23757352.251   124845741.617 7     -1762.005          45.500
  23757353.981    97282404.215 6     -1372.962          41.250

  20873240.738   111540328.274 7        47.500    20873248.588    86753608.925 6
     -1070.989          41.500
                  20873241.258   111540349.015 8     -1376.936          48.500
                                                                  20873248.718
  86753594.675 7     -1071.000          43.000
  21734854.145   114217509.813 6        39.750    21734858.305    89000674.168 6
     -2193.500          39.750    21734857.565    85292312.327 7     -2102.098
        45.750    21734854.145   114217506.562 8     -2814.969          50.750
  21734857.565    89000666.933 8     -2193.500          49.750

  21418510.550   112555100.053 7        42.250    21418510.530    87705287.634 7
      -394.494          42.250
                  21418510.550   112555099.807 8      -506.244          52.250
  21418511.660    87705294.403 8      -394.485          49.500

  20775420.806   111212520.410 8        48.000    20775427.176    86498645.077 7
      2075.832          47.000
                  20775421.686   111212525.158 8      2668.892          49.000
                                                                  20775427.356
  86498670.826 7      2075.809          47.500
  22364027.124   119548630.882 7        44.750    22364036.294    92982289.045 6
     -2798.086          37.500
                  22364027.494   119548633.623 7     -3597.504          45.500
                                                                  22364035.764
  92982298.801 6     -2798.101          39.500
 14  8 29 20  2 24.0000000  0 22G23G11R12G25R19R17G13R 2R18G 6G 9G14-0.000193321
                                G12G20G 4G32G17R11G 1G31R 3R 1
  22206311.205   116695019.397 6        38.500    22206310.115    90931201.170 6
      2073.287          38.500
                  22206312.015   116694992.125 8      2660.779          49.250


  24274854.768   127565282.731 3        21.750    24274855.428    99401530.893 3
     -3043.770          21.750
                  24274854.868   127565273.462 6     -3906.235          41.750


  21088983.468   112653617.868 7        43.750    21088993.838    87619490.439 7
      2342.701          43.500
                  21088984.268   112653617.613 7      3012.030          45.250
                                                                  21088991.568
  87619472.195 7      2342.667          45.250
  24235939.823   127360732.850 3        21.750    24235943.643    99242128.960 3
       -42.385          21.750    24235946.533    95107040.886 6       -40.705
        36.750    24235940.173   127360749.615 6       -54.463          37.750
  24235944.403    99242131.757 6       -42.448          40.250

  22590101.214   120841826.265 7        45.000    22590107.044    93988091.006 6
      2001.001          40.500
                  22590100.924   120841842.011 7      2572.752          45.750
                                                                  22590107.764
  93988095.755 6      2001.018          41.500
  23095952.618   123591116.396 6        41.750    23095960.768    96126420.979 6
     -3482.118          39.250
                  23095952.238   123591125.133 7     -4477.031          42.000
                                                                  23095961.488
  96126439.733 6     -3482.142          40.500
  24302015.105   127707964.680 3        22.250    24302014.255    99512702.889 3
      2774.453          22.250
                  24302014.445   127708181.441 6      3560.593          40.750


  19288508.110   102927223.458 9        54.000    19288515.170    80054534.944 8
      -635.775          50.750
                  19288507.710   102927646.211 9      -817.413          55.250
                                                                  19288515.560
  80054534.696 8      -635.772          51.750
  21128604.359   112785954.568 8        48.250    21128612.799    87722415.582 7
     -1413.826          45.500
                  21128603.919   112785844.321 8     -1817.813          48.500
                                                                  21128612.549
  87722421.330 7     -1413.828          46.750
  24517848.159   128842175.418 4        27.250    24517853.769   100396501.746 4
      2554.806          27.250    24517854.219    96213307.167 6      2448.392
        37.000    24517848.719   128842171.186 7      3278.715          43.250
  24517853.399   100396504.515 7      2554.812          42.500

  20408027.759   107245011.100 8        48.750    20408030.039    83567561.970 8
       550.495          48.750
                  20408027.689   107245025.845 9       706.493          54.500


  25049142.340   131634253.216 2        15.250    25049146.730   102572169.109 2
     -2777.801          15.250
                  25049145.350   131634257.969 6     -3564.964          36.500


  24968540.900   131210551.397 1        10.000    24968539.210   102241986.940 1
     -1411.870          10.000
                  24968538.410   131210552.108 5     -1811.838          34.500
  24968542.270   102241992.698 5     -1411.858          33.250

  20157222.948   105927026.962 7        46.000    20157223.498    82540562.896 7
       629.242          46.000
                  20157224.038   105927042.705 8       807.528          51.250


  20890947.060   109782717.791 7        42.750    20890948.200    85544984.192 7
      -486.336          42.750
                  20890947.360   109782718.524 8      -624.108          53.250


  21113252.183   110950966.532 7        43.250    21113253.563    86455316.342 7
     -1598.773          43.250
                  21113252.473   110950978.277 8     -2051.765          52.750


  23757687.154   124847516.403 4        29.750    23757689.704    97283782.850 4
     -1373.969          29.750
                  23757687.224   124847504.130 7     -1763.164          45.500
  23757690.894    97283777.619 6     -1373.963          40.750

  20873498.185   111541705.911 7        47.500    20873506.495    86754680.422 6
     -1072.139          40.750
                  20873498.645   111541726.650 8     -1378.440          48.250
                                                                  20873506.385
  86754666.178 7     -1072.146          42.500
  21735389.533   114220325.328 6        39.750    21735393.943    89002868.078 6
     -2194.353          39.750    21735393.383    85294414.822 7     -2102.904
        45.250    21735389.763   114220322.087 8     -2816.065          50.500
  21735393.783    89002860.845 8     -2194.344          49.750

  21418607.257   112555606.902 7        42.250    21418607.287    87705682.571 7
      -395.448          42.250
                  21418607.287   112555606.655 8      -507.537          52.250
  21418607.427    87705689.351 8      -395.480          49.500

  20774921.775   111209851.918 7        47.750    20774928.565    86496569.585 7
      2075.112          46.500
                  20774922.675   111209856.680 8      2668.005          48.750
                                                                  20774928.965
  86496595.335 7      2075.113          47.500
  22364700.885   119552228.764 7        44.500    22364709.575    92985087.395 6
     -2798.730          36.500
                  22364702.615   119552231.489 7     -3598.327          45.500
                                                                  22364709.445
  92985097.146 6     -2798.705          38.750
 14  8 29 20  2 25.0000000  0 22G23G11R12G25R19R17G13R 2R18G 6G 9G14-0.000193250
                                G12G20G 4G32G17R11G 1G31R 3R 1
  22205804.400   116692358.887 6        38.750    22205803.910    90929128.038 6
      2073.096          38.750
                  22205805.570   116692331.613 8      2660.481          49.000


  24275597.599   127569189.118 3        21.750    24275600.559    99404574.829 3
     -3043.966          21.750
                  24275598.749   127569179.853 6     -3906.292          41.750


  21088419.791   112650606.292 7        43.750    21088429.621    87617148.106 7
      2342.154          44.000
                  21088419.351   112650606.031 7      3011.302          45.000
                                                                  21088428.491
  87617129.859 7      2342.159          45.500
  24235949.201   127360787.857 3        21.750    24235953.711    99242171.844 3
       -43.004          21.750    24235957.401    95107081.948 6       -41.147
        36.750    24235950.141   127360804.606 6       -55.168          38.500
  24235953.981    99242174.622 6       -42.991          40.250

  22589619.860   120839253.965 7        44.750    22589626.090    93986090.329 6
      2000.402          41.250
                  22589620.440   120839269.712 7      2572.070          46.250
                                                                  22589627.260
  93986095.074 7      2000.413          42.250
  23096788.716   123595593.634 6        41.750    23096797.356    96129903.265 6
     -3482.292          39.500
                  23096788.566   123595602.368 7     -4477.171          42.000
                                                                  23096800.056
  96129922.018 6     -3482.347          40.500
  24301336.268   127704404.237 3        22.250    24301339.278    99509928.484 3
      2774.438          22.250
                  24301336.018   127704620.975 6      3560.449          40.750


  19288661.491   102928041.209 9        54.000    19288668.261    80055170.976 8
      -636.186          51.250
                  19288661.501   102928463.961 9      -817.936          55.000
                                                                  19288668.701
  80055170.726 8      -636.173          52.250
  21128944.782   112787772.780 8        48.250    21128953.452    87723829.753 7
     -1414.431          45.750
                  21128946.582   112787662.530 8     -1818.561          48.500
                                                                  21128953.732
  87723835.504 7     -1414.430          47.250
  24517225.675   128838896.882 4        27.500    24517231.055   100393947.049 4
      2554.591          27.500    24517229.685    96210858.906 6      2448.225
        37.500    24517225.315   128838892.627 7      3278.549          42.750
  24517229.925   100393949.798 7      2554.694          43.000

  20407893.298   107244304.932 8        48.750    20407895.818    83567011.709 8
       550.109          48.750
                  20407893.328   107244319.679 9       705.969          54.250


  25049820.418   131637818.157 2        15.250    25049826.148   102574946.984 2
     -2778.062          15.250
                  25049825.378   131637822.923 6     -3565.050          36.750


  24968884.283   131212363.853 1        11.500    24968885.583   102243399.227 1
     -1412.289          11.500
                  24968883.513   131212364.602 5     -1812.437          34.250
  24968887.943   102243404.991 5     -1412.397          33.750

  20157069.400   105926219.744 7        45.750    20157069.760    82539933.894 7
       628.863          45.750
                  20157070.790   105926235.485 8       807.029          51.500


  20891066.016   109783342.307 7        42.750    20891067.126    85545470.835 7
      -486.855          42.750
                  20891066.366   109783343.040 8      -624.789          53.500


  21113642.422   110953018.521 7        43.250    21113643.932    86456915.288 7
     -1599.056          43.250
                  21113643.232   110953030.267 8     -2052.151          53.000


  23758023.566   124849279.832 5        30.000    23758025.836    97285156.951 5
     -1374.332          30.000
                  23758023.376   124849267.565 7     -1763.623          45.500
  23758025.316    97285151.720 6     -1374.306          41.000

  20873756.311   111543084.902 7        47.750    20873764.921    86755752.973 6
     -1072.897          41.250
                  20873756.781   111543105.644 8     -1379.399          48.250
                                                                  20873763.861
  86755738.721 7     -1072.911          42.500
  21735925.557   114223141.735 6        40.000    21735930.267    89005062.679 6
     -2194.760          40.000    21735929.307    85296517.982 7     -2103.292
        45.250    21735925.687   114223138.491 8     -2816.600          50.500
  21735929.517    89005055.448 8     -2194.733          50.000

  21418703.592   112556114.867 7        42.000    21418703.772    87706078.392 7
      -396.018          42.000
                  21418703.922   112556114.614 8      -508.223          52.250
  21418704.412    87706085.170 8      -396.018          49.750

  20774423.578   111207184.209 7        47.750    20774430.298    86494494.705 7
      2074.804          46.750
                  20774423.038   111207188.963 8      2667.636          48.500
                                                                  20774430.378
  86494520.447 7      2074.818          47.750
  22365373.499   119555827.264 7        44.500    22365383.819    92987886.232 6
     -2798.849          36.750
                  22365373.169   119555830.002 7     -3598.597          45.250
                                                                  22365383.169
  92987895.972 6     -2798.893          38.750
 14  8 29 20  2 26.0000000  0 22G23G11R12G25R19R17G13R 2R18G 6G 9G14-0.000193179
                                G12G20G 4G32G17R11G 1G31R 3R 1
  22205298.795   116689698.613 6        38.750    22205297.585    90927055.103 6
      2072.863          38.750
                  22205299.415   116689671.353 8      2660.167          49.000


  24276340.712   127573095.510 3        21.750    24276343.082    99407618.761 3
     -3043.943          21.750
                  24276341.152   127573086.279 6     -3906.323          41.750


  21087856.165   112647595.344 7        44.000    21087866.095    87614806.260 7
      2341.618          44.000
                  21087855.325   112647595.080 7      3010.609          45.000
                                                                  21087864.885
  87614788.012 7      2341.616          45.500
  24235962.622   127360843.491 3        21.750    24235964.752    99242215.177 3
       -43.552          21.750    24235967.782    95107123.478 6       -41.706
        37.000    24235959.902   127360860.229 6       -55.847          38.000
  24235964.602    99242217.960 6       -43.536          40.000

  22589139.193   120836682.298 7        45.000    22589145.563    93984090.156 6
      1999.946          41.000
                  22589139.993   120836698.048 7      2571.335          45.750
                                                                  22589145.773
  93984094.897 7      1999.932          42.500
  23097624.991   123600071.015 6        41.500    23097633.841    96133385.678 6
     -3482.420          39.750
                  23097624.711   123600079.746 7     -4477.428          42.000
                                                                  23097633.751
  96133404.432 6     -3482.429          41.000
  24300659.393   127700843.860 3        21.500    24300658.073    99507154.165 3
      2774.375          21.500
                  24300657.993   127701060.606 6      3560.385          40.250


  19288814.635   102928859.443 9        54.250    19288821.555    80055807.377 8
      -636.585          51.250
                  19288813.765   102929282.196 9      -818.465          55.000
                                                                  19288822.175
  80055807.128 8      -636.582          52.250
  21129285.784   112789591.824 8        48.250    21129294.274    87725244.557 7
     -1415.089          45.750
                  21129285.974   112789481.567 8     -1819.451          48.500
                                                                  21129294.044
  87725250.310 7     -1415.112          47.250
  24516601.854   128835618.553 4        27.000    24516606.174   100391392.507 4
      2554.448          27.000    24516605.614    96208410.790 6      2448.092
        37.750    24516601.024   128835614.289 7      3278.314          43.000
  24516606.164   100391395.254 7      2554.542          43.000

  20407759.115   107243599.238 8        48.500    20407761.515    83566461.818 8
       549.701          48.500
                  20407759.495   107243613.983 9       705.489          54.250


  25050500.724   131641383.058 2        15.250    25050503.784   102577724.851 2
     -2777.905          15.250
                  25050504.944   131641387.852 6     -3564.873          37.250


  24969229.385   131214176.907 1        11.500    24969228.715   102244812.012 1
     -1413.147          11.500
                  24969228.295   131214177.537 6     -1813.458          36.250
  24969231.835   102244817.718 5     -1413.151          33.750

  20156916.038   105925413.001 7        45.750    20156916.558    82539305.263 7
       628.483          45.750
                  20156916.898   105925428.739 8       806.559          51.500


  20891184.698   109783967.471 7        43.000    20891186.278    85545957.964 7
      -487.330          43.000
                  20891185.308   109783968.206 8      -625.445          53.500


  21114033.322   110955070.837 7        43.250    21114034.642    86458514.504 7
     -1599.297          43.250
                  21114033.972   110955082.582 8     -2052.464          53.000


  23758358.681   124851043.712 4        29.250    23758360.931    97286531.416 4
     -1374.627          29.250
                  23758358.061   124851031.478 7     -1764.068          45.750
  23758360.551    97286526.186 6     -1374.614          41.000

  20874014.459   111544464.754 7        47.500    20874023.099    86756826.194 6
     -1073.570          41.500
                  20874015.109   111544485.500 8     -1380.286          48.500
                                                                  20874023.049
  86756811.938 7     -1073.557          42.250
  21736461.606   114225958.550 6        39.750    21736465.926    89007257.591 6
     -2195.030          39.750    21736465.426    85298621.443 7     -2103.615
        45.500    21736461.446   114225955.300 8     -2817.019          50.500
  21736465.686    89007250.362 8     -2195.070          49.750

  21418800.532   112556623.463 7        42.000    21418800.632    87706474.703 7
      -396.499          42.000
                  21418800.542   112556623.211 8      -508.867          52.250
  21418801.352    87706481.480 8      -396.513          49.750

  20773925.282   111204516.801 7        47.750    20773931.872    86492420.052 7
      2074.593          46.750
                  20773925.062   111204521.551 8      2667.319          48.500
                                                                  20773932.252
  86492445.808 7      2074.596          47.500
  22366047.434   119559425.909 7        44.500    22366056.564    92990685.172 6
     -2798.943          36.500
                  22366048.884   119559428.657 7     -3598.644          45.250
                                                                  22366054.424
  92990694.916 6     -2798.999          38.750
 14  8 29 20  2 27.0000000  0 22G23G11R12G25R19R17G13R 2R18G 6G 9G14-0.000193108
                                G12G20G 4G32G17R11G 1G31R 3R 1
  22204792.147   116687038.131 6        38.750    22204791.737    90924982.008 6
      2072.999          38.750
                  22204793.147   116687010.865 8      2660.398          49.000


  24277083.157   127577001.541 3        21.750    24277086.377    99410662.400 3
     -3043.556          21.750
                  24277085.147   127576992.284 7     -3906.020          42.000


  21087292.898   112644584.590 7        44.000    21087302.458    87612464.566 7
      2341.492          44.000
                  21087291.418   112644584.338 7      3010.525          45.000
                                                                  21087301.878
  87612446.323 7      2341.512          45.500
  24235972.639   127360899.244 3        20.750    24235972.599    99242258.623 3
       -43.467          20.750    24235978.279    95107165.131 6       -41.725
        36.500    24235971.369   127360916.007 6       -55.855          38.250
  24235976.679    99242261.412 6       -43.483          39.750

  22588658.917   120834110.856 7        44.750    22588664.617    93982090.146 6
      1999.776          41.000
                  22588658.967   120834126.609 7      2571.188          45.750
                                                                  22588665.717
  93982094.892 7      1999.781          42.500
  23098462.142   123604548.113 7        42.000    23098471.242    96136867.863 6
     -3482.230          39.250
                  23098462.442   123604556.838 7     -4477.203          42.250
                                                                  23098471.102
  96136886.608 6     -3482.245          41.000
  24299981.857   127697283.080 3        21.500    24299982.687    99504379.549 3
      2774.628          21.500
                  24299980.207   127697499.824 6      3560.968          40.500


  19288968.002   102929677.729 9        54.000    19288974.942    80056443.820 8
      -636.626          51.250
                  19288967.472   102930100.482 9      -818.544          55.000
                                                                  19288975.272
  80056443.570 8      -636.630          52.500
  21129626.365   112791411.213 8        48.250    21129634.935    87726659.649 7
     -1415.397          45.750
                  21129626.565   112791300.960 8     -1819.752          48.500
                                                                  21129634.685
  87726665.397 7     -1415.388          47.000
  24515977.736   128832340.014 4        26.750    24515982.006   100388837.781 4
      2554.504          26.750    24515982.686    96205962.519 6      2448.234
        37.250    24515977.726   128832335.732 7      3278.491          42.750
  24515982.876   100388840.532 7      2554.634          42.500

  20407624.815   107242893.560 8        48.750    20407627.215    83565911.943 8
       549.699          48.750
                  20407625.275   107242908.315 9       705.461          54.500


  25051179.155   131644947.542 2        15.250    25051183.195   102580502.424 2
     -2777.712          15.250
                  25051182.715   131644952.325 6     -3564.515          37.250


  24969574.467   131215989.906 1        11.500    24969573.657   102246224.686 1
     -1412.936          11.500
                  24969571.917   131215990.591 5     -1813.257          35.750
  24969579.807   102246230.443 5     -1413.030          32.500

  20156762.302   105924606.289 7        45.750    20156762.992    82538676.655 7
       628.460          45.750
                  20156763.512   105924622.027 8       806.515          51.500


  20891303.847   109784592.841 7        42.750    20891305.187    85546445.269 7
      -487.521          42.750
                  20891304.167   109784593.576 8      -625.647          53.500


  21114423.847   110957123.048 7        43.500    21114424.957    86460113.623 7
     -1599.270          43.500
                  21114424.347   110957134.793 8     -2052.374          53.250


  23758694.694   124852807.668 5        30.000    23758694.184    97287905.934 5
     -1374.737          30.000
                  23758694.284   124852795.417 7     -1764.151          45.750
  23758696.064    97287900.684 6     -1374.630          41.000

  20874273.097   111545845.015 7        47.750    20874280.917    86757899.727 6
     -1073.889          41.000
                  20874272.757   111545865.754 8     -1380.660          48.500
                                                                  20874281.357
  86757885.475 7     -1073.902          42.500
  21736997.887   114228775.318 6        40.000    21737002.337    89009452.479 6
     -2195.029          40.000    21737001.347    85300724.876 7     -2103.577
        45.500    21736997.667   114228772.076 8     -2816.948          50.500
  21737001.967    89009445.249 8     -2195.029          50.000

  21418897.218   112557132.269 7        42.250    21418897.528    87706871.173 7
      -396.735          42.250
                  21418897.228   112557132.027 8      -509.133          52.250
  21418897.798    87706877.955 8      -396.722          49.750

  20773426.652   111201849.266 7        47.750    20773433.612    86490345.305 7
      2074.617          46.750
                  20773426.132   111201854.018 8      2667.451          48.500
                                                                  20773433.052
  86490371.059 8      2074.624          48.000
  22366720.548   119563024.252 7        44.250    22366729.648    92993483.906 6
     -2798.727          36.750
                  22366720.098   119563026.992 7     -3598.407          45.000
                                                                  22366731.448
  92993493.637 6     -2798.724          39.250
 14  8 29 20  2 28.0000000  0 22G23G11R12G25R19R17G13R 2R18G 6G 9G14-0.000193037
                                G12G20G 4G32G17R11G 1G31R 3R 1
  22204286.056   116684377.888 6        38.250    22204285.286    90922909.094 6
      2072.598          38.250
                  22204287.106   116684350.619 8      2659.868          49.000


  24277827.257   127580907.565 3        21.750    24277829.927    99413706.039 3
     -3043.683          21.750
                  24277828.137   127580898.301 6     -3906.358          41.750


  21086729.047   112641574.452 7        43.750    21086738.777    87610123.349 7
      2340.761          44.000
                  21086726.837   112641574.209 7      3009.596          44.750
                                                                  21086738.377
  87610105.091 7      2340.775          45.250
  24235981.362   127360955.597 3        20.750    24235984.652    99242302.580 3
       -44.061          20.750    24235988.642    95107207.249 6       -42.451
        36.750    24235982.602   127360972.365 6       -56.756          37.750
  24235986.292    99242305.351 6       -44.247          39.750

  22588178.313   120831540.079 7        44.750    22588183.853    93980090.656 6
      1999.019          41.000
                  22588180.033   120831555.841 7      2570.223          46.000
                                                                  22588184.883
  93980095.397 7      1999.027          42.500
  23099298.730   123609025.352 7        42.000    23099307.490    96140350.162 6
     -3482.555          39.500
                  23099298.240   123609034.096 7     -4477.583          42.750
                                                                  23099307.250
  96140368.907 6     -3482.561          40.500
  24299303.964   127693722.354 3        21.500    24299302.294    99501604.969 3
      2774.248          21.500
                  24299304.594   127693939.124 6      3560.378          40.250


  19289121.419   102930496.512 9        54.000    19289128.309    80057080.655 8
      -637.260          51.250
                  19289121.559   102930919.266 9      -819.266          55.000
                                                                  19289128.479
  80057080.403 8      -637.253          52.250
  21129967.358   112793231.390 8        48.250    21129976.048    87728075.334 7
     -1416.202          45.500
                  21129967.678   112793121.145 8     -1820.836          48.750
                                                                  21129975.988
  87728081.086 7     -1416.205          47.000
  24515355.817   128829061.627 4        27.750    24515358.407   100386283.215 4
      2554.182          27.750    24515358.597    96203514.395 6      2447.878
        37.500    24515353.057   128829057.378 7      3278.032          42.750
  24515356.967   100386285.971 7      2554.271          43.000

  20407490.513   107242188.356 8        48.750    20407493.153    83565362.429 8
       549.102          48.750
                  20407491.163   107242203.104 9       704.689          54.750


  25051856.677   131648511.985 2        16.000    25051861.037   102583279.838 2
     -2777.545          16.000
                  25051860.327   131648516.773 6     -3564.564          37.250


  24969918.620   131217803.407 1        11.500    24969917.440   102247637.836 1
     -1413.545          11.500
                  24969916.720   131217804.167 5     -1814.098          35.750
  24969920.690   102247643.625 5     -1413.588          33.250

  20156608.911   105923800.052 7        45.750    20156609.341    82538048.417 7
       627.856          45.750
                  20156610.201   105923815.789 8       805.753          51.500


  20891423.154   109785218.848 7        42.500    20891424.494    85546933.066 7
      -488.242          42.500
                  20891423.634   109785219.586 8      -626.545          53.500


  21114814.402   110959175.570 7        43.250    21114815.602    86461712.994 7
     -1599.715          43.250
                  21114815.232   110959187.314 8     -2052.933          53.250


  23759029.846   124854572.074 4        29.000    23759033.366    97289280.804 4
     -1375.298          29.000
                  23759029.836   124854559.816 7     -1764.805          46.000
  23759030.466    97289275.561 6     -1375.186          40.750

  20874531.005   111547226.134 7        47.750    20874539.765    86758973.938 6
     -1074.748          41.000
                  20874531.855   111547246.865 8     -1381.791          48.250
                                                                  20874539.915
  86758959.669 7     -1074.733          42.000
  21737533.735   114231592.504 6        39.750    21737538.315    89011647.686 6
     -2195.589          39.750    21737537.475    85302828.616 7     -2104.111
        45.500    21737533.905   114231589.252 8     -2817.653          50.500
  21737537.645    89011640.458 8     -2195.584          49.750

  21418994.432   112557641.697 7        42.000    21418994.282    87707268.132 7
      -397.411          42.000
                  21418994.792   112557641.453 8      -510.011          52.250
  21418995.072    87707274.907 8      -397.408          49.750

  20772928.541   111199181.980 7        47.750    20772935.511    86488270.748 7
      2074.287          46.750
                  20772927.691   111199186.724 8      2666.977          48.250
                                                                  20772935.451
  86488296.510 7      2074.279          47.750
  22367393.645   119566622.722 7        44.250    22367402.525    92996282.707 6
     -2799.022          36.250
                  22367391.645   119566625.467 7     -3598.746          45.000
                                                                  22367404.605
  92996292.442 6     -2799.006          39.500
 14  8 29 20  2 29.0000000  0 22G23G11R12G25R19R17G13R 2R18G 6G 9G14-0.000192967
                                G12G20G 4G32G17R11G 1G31R 3R 1
  22203780.302   116681717.932 6        38.500    22203779.352    90920836.414 6
      2072.815          38.500
                  22203780.502   116681690.678 8      2660.090          49.250


  24278568.933   127584813.693 3        21.750    24278572.783    99416749.794 3
     -3043.632          21.750
                  24278570.723   127584804.402 7     -3905.900          42.000


  21086165.889   112638564.877 7        43.500    21086175.529    87607782.568 7
      2340.760          43.250
                  21086167.379   112638564.618 7      3009.540          44.750
                                                                  21086173.799
  87607764.321 7      2340.714          45.000
  24235991.572   127361012.663 3        20.750    24235993.282    99242346.971 3
       -44.124          20.750    24235999.602    95107249.835 6       -42.389
        37.250    24235993.722   127361029.408 6       -56.724          38.000
  24235996.502    99242349.802 6       -44.180          39.750

  22587697.391   120828970.021 7        44.500    22587703.751    93978091.728 6
      1998.872          40.750
                  22587697.101   120828985.767 7      2569.972          46.000
                                                                  22587704.051
  93978096.470 7      1998.865          42.500
  23100135.365   123613502.793 6        41.750    23100144.335    96143832.619 6
     -3482.293          38.500
                  23100134.025   123613511.578 7     -4477.234          42.250
                                                                  23100145.595
  96143851.356 6     -3482.259          40.500
  24298627.221   127690161.801 3        21.500    24298625.591    99498830.490 3
      2774.571          21.500
                  24298626.851   127690378.529 6      3560.883          39.750


  19289275.082   102931315.836 9        54.000    19289281.822    80057717.909 8
      -637.221          51.000
                  19289274.942   102931738.589 9      -819.295          55.000
                                                                  19289281.822
  80057717.657 8      -637.215          52.000
  21130308.535   112795052.397 8        48.250    21130317.315    87729491.677 7
     -1416.412          45.250
                  21130308.455   112794942.140 8     -1821.115          48.500
                                                                  21130316.645
  87729497.426 7     -1416.432          46.750
  24514729.598   128825783.539 4        27.250    24514734.898   100383728.855 4
      2554.389          27.250    24514735.298    96201066.466 6      2448.016
        37.250    24514730.478   128825779.270 7      3278.199          42.500
  24514734.068   100383731.611 7      2554.463          42.500

  20407356.398   107241483.664 8        48.750    20407358.928    83564813.321 8
       549.153          48.750
                  20407356.838   107241498.413 9       704.733          55.000


  25052534.958   131652076.495 2        16.000    25052539.758   102586057.351 2
     -2777.160          16.000
                  25052540.328   131652081.275 6     -3564.104          38.000


  24970263.024   131219617.504 1        11.500    24970266.184   102249051.475 1
     -1413.702          11.500
                  24970262.414   131219618.310 5     -1814.002          35.750
  24970266.044   102249057.218 5     -1413.576          33.750

  20156455.564   105922994.331 7        45.750    20156456.034    82537420.588 7
       627.882          45.750
                  20156456.534   105923010.073 8       805.755          51.750


  20891542.267   109785845.546 7        43.000    20891543.577    85547421.404 7
      -488.358          43.000
                  20891542.907   109785846.282 8      -626.761          53.250


  21115204.873   110961228.466 7        43.500    21115206.423    86463312.652 7
     -1599.582          43.500
                  21115205.633   110961240.210 8     -2052.833          53.250


  23759366.541   124856337.017 5        30.000    23759367.911    97290656.058 5
     -1375.210          30.000
                  23759366.641   124856324.764 7     -1764.881          46.000
  23759367.991    97290650.836 6     -1375.215          40.750

  20874789.782   111548608.159 7        47.500    20874797.832    86760048.839 6
     -1074.972          40.750
                  20874788.912   111548628.892 8     -1382.083          48.250
                                                                  20874798.422
  86760034.577 7     -1074.946          42.250
  21738069.955   114234410.146 6        39.750    21738074.015    89013843.246 6
     -2195.481          39.750    21738073.375    85304932.702 7     -2104.026
        45.250    21738070.015   114234406.895 8     -2817.575          50.250
  21738074.335    89013836.025 8     -2195.499          49.750

  21419091.348   112558151.823 7        42.250    21419091.618    87707665.634 7
      -397.547          42.250
                  21419091.158   112558151.572 8      -510.181          52.250
  21419092.128    87707672.410 8      -397.541          49.750

  20772430.540   111196515.015 7        47.500    20772437.130    86486196.452 7
      2074.466          46.500
                  20772430.210   111196519.766 8      2667.110          48.500
                                                                  20772437.220
  86486222.211 7      2074.455          47.750
  22368067.174   119570221.387 7        44.250    22368075.384    92999081.672 6
     -2798.735          36.250
                  22368066.724   119570224.143 7     -3598.417          45.250
                                                                  22368072.294
  92999091.390 6     -2798.702          38.500
 14  8 29 20  2 30.0000000  0 22G23G11R12G25R19R17G13R 2R18G 6G 9G14-0.000192896
                                G12G20G 4G32G17R11G 1G31R 3R 1
  22203273.821   116679058.119 6        38.500    22203273.131    90918763.823 6
      2072.617          38.500
                  22203274.581   116679030.856 8      2659.816          49.000


  24279313.491   127588719.724 3        21.500    24279316.571    99419793.440 3
     -3043.551          21.500
                  24279313.831   127588710.453 7     -3905.898          42.000


  21085601.958   112635555.766 7        43.500    21085612.108    87605442.146 7
      2340.317          43.750
                  21085602.798   112635555.496 7      3008.969          44.250
                                                                  21085612.598
  87605423.896 7      2340.306          45.000
  24236003.050   127361070.249 3        21.000    24236008.360    99242391.910 3
       -44.813          21.000    24236010.500    95107292.849 6       -42.909
        37.250    24236006.580   127361087.046 6       -57.518          36.250
  24236008.530    99242394.696 6       -44.764          39.750

  22587216.831   120826400.509 7        44.500    22587222.901    93976093.225 6
      1998.343          41.000
                  22587218.221   120826416.264 7      2569.269          46.000
                                                                  22587222.851
  93976097.972 7      1998.348          42.750
  23100972.197   123617980.276 6        41.750    23100980.477    96147315.103 6
     -3482.437          39.500
                  23100970.317   123617989.029 7     -4477.379          42.000
                                                                  23100980.197
  96147333.847 6     -3482.435          40.750
  24297948.915   127686601.184 3        21.500    24297949.565    99496055.975 3
      2774.687          21.500
                  24297948.855   127686817.911 6      3560.751          40.000


  19289428.550   102932135.496 9        54.000    19289435.740    80058355.421 8
      -637.547          51.250
                  19289428.340   102932558.253 9      -819.711          54.750
                                                                  19289435.620
  80058355.172 8      -637.545          52.500
  21130649.848   112796874.099 8        48.250    21130658.798    87730908.551 7
     -1417.026          45.750
                  21130648.848   112796763.854 8     -1821.953          48.500
                                                                  21130657.458
  87730914.304 7     -1417.027          47.000
  24514107.001   128822505.535 4        27.500    24514111.051   100381174.561 4
      2554.278          27.500    24514111.681    96198618.615 6      2447.839
        37.500    24514106.631   128822501.271 7      3277.964          42.500
  24514110.601   100381177.328 7      2554.275          43.000

  20407222.312   107240779.351 8        48.750    20407224.812    83564264.506 8
       548.727          48.750
                  20407222.732   107240794.099 9       704.204          54.750


  25053212.503   131655640.833 2        16.000    25053216.773   102588834.796 2
     -2777.156          16.000
                  25053217.643   131655645.613 6     -3564.030          38.000


  24970610.034   131221432.045 1        11.500    24970610.594   102250465.325 1
     -1413.850          11.500
                  24970608.644   131221432.811 6     -1814.660          36.250
  24970610.074   102250471.115 5     -1413.962          32.500

  20156302.382   105922188.989 7        45.750    20156302.822    82536793.051 7
       627.452          45.750
                  20156303.022   105922204.724 8       805.219          52.000


  20891661.590   109786472.798 7        43.250    20891662.840    85547910.168 7
      -488.917          43.250
                  20891662.170   109786473.537 8      -627.443          53.500


  21115595.414   110963281.576 7        43.000    21115597.244    86464912.480 7
     -1599.876          43.000
                  21115596.044   110963293.325 8     -2053.165          53.000


  23759702.416   124858102.311 5        30.250    23759704.366    97292031.618 5
     -1375.512          30.250
                  23759701.896   124858090.066 7     -1765.365          45.750
  23759702.986    97292026.400 6     -1375.571          41.000

  20875048.472   111549990.942 7        47.250    20875056.502    86761124.342 6
     -1075.742          40.500
                  20875048.572   111550011.685 8     -1383.071          48.000
                                                                  20875056.262
  86761110.081 7     -1075.728          42.500
  21738606.210   114237228.096 6        39.750    21738610.550    89016039.057 6
     -2195.872          39.750    21738609.800    85307037.011 7     -2104.357
        45.500    21738606.440   114237224.850 8     -2817.998          50.500
  21738610.430    89016031.831 8     -2195.843          50.000

  21419188.647   112558662.484 7        42.250    21419188.517    87708063.558 7
      -398.115          42.250
                  21419188.767   112558662.236 8      -510.871          52.250
  21419189.187    87708070.330 8      -398.095          49.750

  20771932.516   111193848.184 7        47.500    20771939.036    86484122.249 7
      2074.242          46.500
                  20771931.586   111193852.932 8      2666.829          48.250
                                                                  20771938.366
  86484148.000 7      2074.239          47.750
  22368740.072   119573820.092 7        44.750    22368748.342    93001880.656 6
     -2798.922          36.000
                  22368739.422   119573822.837 7     -3598.697          45.250
                                                                  22368747.322
  93001890.380 6     -2798.956          38.500
 14  8 29 20  2 31.0000000  0 22G23G11R12G25R19R17G13R 2R18G 6G 9G14-0.000192825
                                G12G20G 4G32G17R11G 1G31R 3R 1
  22202767.824   116676398.813 6        38.500    22202767.354    90916691.634 6
      2072.120          38.500
                  22202768.354   116676371.543 8      2659.199          49.000


  24280057.370   127592626.077 3        21.500    24280059.890    99422837.336 3
     -3043.844          21.500
                  24280056.740   127592616.765 7     -3906.256          42.250


  21085039.393   112632547.553 7        43.750    21085048.923    87603102.425 7
      2339.564          44.000
                  21085040.723   112632547.297 7      3007.934          44.750
                                                                  21085047.933
  87603084.175 7      2339.549          45.250
  24236014.517   127361128.688 3        21.000    24236018.177    99242437.458 3
       -45.618          21.000    24236022.147    95107336.518 6       -43.852
        36.250    24236016.647   127361145.462 6       -58.815          36.500
  24236019.577    99242440.257 6       -45.738          40.000

  22586736.875   120823831.936 7        44.500    22586743.085    93974095.450 6
      1997.486          41.250
                  22586737.075   120823847.687 7      2568.268          45.750
                                                                  22586742.255
  93974100.197 7      1997.501          42.500
  23101809.035   123622458.184 6        41.500    23101817.235    96150797.915 6
     -3482.968          39.000
                  23101807.655   123622466.933 7     -4478.010          42.500
                                                                  23101816.215
  96150816.667 6     -3482.943          40.250
  24297269.776   127683040.910 3        22.250    24297271.136    99493281.717 3
      2774.245          22.250
                  24297269.906   127683257.630 6      3560.317          40.000


  19289582.341   102932955.868 9        54.250    19289589.461    80058993.492 8
      -638.218          51.250
                  19289582.571   102933378.618 9      -820.553          55.000
                                                                  19289589.651
  80058993.241 8      -638.217          52.250
  21130991.282   112798696.864 8        48.500    21130999.732    87732326.258 7
     -1417.966          45.750
                  21130990.642   112798586.616 8     -1823.107          48.750
                                                                  21130998.742
  87732332.009 7     -1417.968          47.250
  24513484.733   128819227.989 4        27.000    24513486.003   100378620.613 4
      2553.919          27.000    24513486.893    96196171.105 6      2447.414
        37.500    24513482.163   128819223.729 7      3277.403          42.750
  24513486.503   100378623.406 7      2553.851          42.750

  20407088.604   107240075.733 8        48.750    20407091.114    83563716.236 8
       548.167          48.750
                  20407088.964   107240090.489 9       703.473          54.750


  25053889.392   131659205.489 2        15.750    25053893.562   102591612.424 2
     -2777.492          15.750
                  25053895.072   131659210.261 6     -3564.517          38.000


  24970954.701   131223247.471 1        11.250    24970958.001   102251879.914 1
     -1414.609          11.250
                  24970955.981   131223248.123 6     -1815.466          36.500
  24970959.361   102251885.649 5     -1414.632          31.500

  20156149.190   105921384.363 7        46.250    20156149.750    82536166.067 7
       626.853          46.250
                  20156150.110   105921400.099 8       804.464          52.000


  20891781.341   109787100.957 7        43.000    20891782.481    85548399.641 7
      -489.677          43.000
                  20891781.491   109787101.685 8      -628.448          53.500


  21115986.548   110965335.296 7        43.250    21115987.598    86466512.776 7
     -1600.416          43.250
                  21115986.958   110965347.044 8     -2053.870          53.250


  23760037.566   124859868.327 4        29.500    23760039.376    97293407.750 4
     -1376.202          29.500
                  23760037.726   124859856.103 7     -1766.261          46.000
  23760038.776    97293402.516 6     -1376.215          40.500

  20875307.925   111551374.827 7        47.500    20875315.855    86762200.694 6
     -1076.612          41.000
                  20875308.045   111551395.569 8     -1384.249          48.000
                                                                  20875312.925
  86762186.436 7     -1076.630          42.250
  21739142.429   114240046.706 6        40.000    21739147.219    89018235.371 6
     -2196.403          40.000    21739145.909    85309141.818 7     -2104.875
        45.000    21739142.969   114240043.462 8     -2818.724          50.500
  21739146.819    89018228.155 8     -2196.412          49.750

  21419285.755   112559174.033 7        42.000    21419286.045    87708462.157 7
      -398.772          42.000
                  21419286.095   112559173.785 8      -511.809          52.500
  21419286.635    87708468.937 8      -398.794          49.750

  20771433.960   111191181.860 7        47.750    20771440.730    86482048.442 7
      2073.727          46.750
                  20771433.220   111191186.611 8      2666.244          48.250
                                                                  20771440.580
  86482074.197 7      2073.723          47.750
  22369413.611   119577419.175 7        45.000    22369421.511    93004679.933 6
     -2799.315          37.000
                  22369413.301   119577421.920 7     -3599.142          45.250
                                                                  22369420.961
  93004689.675 6     -2799.321          38.000
 14  8 29 20  2 32.0000000  0 22G23G11R12G25R19R17G13R 2R18G 6G 9G14-0.000192754
                                G12G20G 4G32G17R11G 1G31R 3R 1
  22202262.046   116673739.749 6        38.000    22202260.746    90914619.636 6
      2071.933          38.000
                  22202262.236   116673712.485 8      2658.994          49.250


  24280799.059   127596532.391 3        21.500    24280803.819    99425881.242 3
     -3043.889          21.500
                  24280800.759   127596523.122 7     -3906.436          42.250


  21084476.351   112629539.996 7        43.750    21084485.721    87600763.209 7
      2339.081          44.250
                  21084475.701   112629539.748 7      3007.344          44.500
                                                                  21084483.961
  87600744.967 7      2339.081          45.000
  24236026.727   127361187.826 3        21.000    24236030.137    99242483.538 3
       -46.310          21.000    24236033.017    95107380.642 6       -44.362
        36.250    24236029.787   127361204.595 6       -59.481          36.500
  24236030.847    99242486.308 6       -46.324          40.000

  22586256.841   120821264.034 7        44.500    22586263.481    93972098.196 6
      1997.057          41.000
                  22586256.121   120821279.789 7      2567.631          45.500
                                                                  22586261.861
  93972102.946 7      1997.055          42.500
  23102647.641   123626936.241 7        42.000    23102654.581    96154280.851 6
     -3483.093          39.250
                  23102645.171   123626944.976 7     -4478.215          42.250
                                                                  23102654.781
  96154299.601 6     -3483.105          40.750
  24296593.251   127679480.620 3        22.250    24296594.611    99490507.531 3
      2774.208          22.250
                  24296592.801   127679697.392 6      3560.264          39.750


  19289736.301   102933776.747 9        54.000    19289743.231    80059631.954 8
      -638.631          51.000
                  19289735.951   102934199.505 9      -821.116          55.000
                                                                  19289742.751
  80059631.702 8      -638.624          52.250
  21131333.165   112800520.443 8        48.250    21131341.605    87733744.594 7
     -1418.574          45.750
                  21131332.585   112800410.190 8     -1823.901          48.500
                                                                  21131341.315
  87733750.351 7     -1418.588          46.750
  24512858.908   128815950.657 4        26.750    24512861.058   100376066.859 4
      2553.733          26.750    24512863.858    96193723.758 6      2447.284
        37.000    24512857.918   128815946.386 7      3277.253          42.750
  24512862.598   100376069.649 7      2553.708          42.750

  20406954.833   107239372.622 8        48.750    20406957.173    83563168.357 8
       547.763          48.750
                  20406954.783   107239387.371 9       702.942          54.750


  25054568.866   131662770.096 2        16.000    25054574.386   102594390.026 2
     -2777.483          16.000
                  25054574.576   131662774.868 6     -3564.481          38.250


  24971300.060   131225063.256 1        11.250    24971303.150   102253294.852 1
     -1414.883          11.250
                  24971300.020   131225063.993 6     -1816.024          36.250
  24971303.920   102253300.587 5     -1415.052          33.000

  20155996.339   105920580.243 7        46.000    20155996.519    82535539.481 7
       626.422          46.000
                  20155997.039   105920595.985 8       803.906          52.000


  20891900.875   109787729.774 7        43.000    20891902.325    85548889.635 7
      -490.237          43.000
                  20891901.345   109787730.513 8      -629.096          53.500


  21116377.294   110967389.344 7        43.500    21116378.514    86468113.335 7
     -1600.656          43.500
                  21116378.074   110967401.090 8     -2054.198          53.250


  23760374.565   124861634.865 4        29.500    23760374.835    97294784.253 4
     -1376.640          29.500
                  23760373.985   124861622.604 7     -1766.655          45.750
  23760375.035    97294779.030 6     -1376.608          40.500

  20875566.888   111552759.601 7        47.500    20875574.758    86763277.745 6
     -1077.410          40.750
                  20875567.488   111552780.335 8     -1385.143          48.000
                                                                  20875574.378
  86763263.486 7     -1077.404          42.750
  21739679.143   114242865.756 6        39.500    21739683.343    89020432.035 6
     -2196.794          39.500    21739682.703    85311246.955 7     -2105.265
        45.250    21739679.103   114242862.502 8     -2819.188          50.500
  21739683.533    89020424.813 8     -2196.793          49.750

  21419383.500   112559686.241 7        42.000    21419383.420    87708861.284 7
      -399.334          42.000
                  21419383.500   112559685.990 8      -512.486          52.500
  21419384.150    87708868.065 8      -399.332          49.500

  20770936.107   111188515.815 8        48.000    20770942.917    86479974.850 7
      2073.554          46.750
                  20770935.927   111188520.569 8      2665.945          48.250
                                                                  20770942.287
  86480000.603 7      2073.572          47.750
  22370087.272   119581018.434 7        45.000    22370094.232    93007479.360 6
     -2799.488          37.500
                  22370088.092   119581021.180 7     -3599.310          45.500
                                                                  22370096.212
  93007489.104 6     -2799.454          37.500
 14  8 29 20  2 33.0000000  0 22G23G11R12G25R19R17G13R 2R18G 6G 9G14-0.000192683
                                G12G20G 4G32G17R11G 1G31R 3R 1
  22201756.140   116671081.094 6        38.750    22201754.910    90912547.958 6
      2071.254          38.750
                  22201756.540   116671053.832 8      2658.134          49.500


  24281543.508   127600438.957 3        21.000    24281545.958    99428925.328 3
     -3044.533          21.000
                  24281544.158   127600429.687 7     -3906.982          42.250


  21083913.340   112626533.229 7        43.750    21083922.700    87598424.620 7
      2338.071          44.000
                  21083913.000   112626532.979 7      3006.091          44.750
                                                                  21083922.510
  87598406.367 7      2338.085          45.250
  24236038.278   127361247.670 3        18.750    24236040.118    99242530.163 3
       -47.034          18.750    24236044.428    95107425.338 6       -45.110
        37.250    24236037.638   127361264.433 6       -60.347          37.250
  24236041.168    99242532.927 6       -46.999          39.750

  22585776.480   120818696.963 7        44.500    22585782.860    93970101.583 6
      1996.030          41.000
                  22585776.390   120818712.713 7      2566.330          45.500
                                                                  22585784.590
  93970106.331 7      1996.020          42.250
  23103482.651   123631414.571 6        41.750    23103491.391    96157763.988 6
     -3483.540          39.500
                  23103482.521   123631423.289 7     -4478.818          42.500
                                                                  23103491.091
  96157782.749 6     -3483.547          40.250
  24295917.253   127675920.705 3        22.250    24295917.823    99487733.508 3
      2773.579          22.250
                  24295914.203   127676137.395 6      3559.570          39.750


  19289890.045   102934598.286 9        54.000    19289897.345    80060270.930 8
      -639.524          51.250
                  19289889.705   102935021.034 9      -822.250          55.000
                                                                  19289897.565
  80060270.684 8      -639.520          52.250
  21131675.112   112802344.991 8        48.250    21131683.082    87735163.693 7
     -1419.694          45.750
                  21131675.062   112802234.749 8     -1825.362          48.250
                                                                  21131683.592
  87735169.448 7     -1419.711          47.000
  24512234.992   128812673.685 4        27.000    24512238.862   100373513.426 4
      2553.042          27.000    24512240.862    96191276.689 6      2446.635
        37.750    24512234.052   128812669.433 7      3276.395          43.000
  24512239.002   100373516.174 7      2553.099          42.500

  20406821.019   107238670.137 8        48.750    20406823.569    83562620.969 8
       546.890          48.750
                  20406821.199   107238684.890 9       701.846          55.000


  25055248.694   131666334.880 2        16.000    25055251.574   102597167.817 2
     -2778.048          16.000
                  25055252.164   131666339.645 6     -3565.234          37.750


  24971645.293   131226879.877 1        11.250    24971648.683   102254710.398 1
     -1416.389          11.250
                  24971649.083   131226880.608 6     -1817.487          36.500
  24971650.223   102254716.147 5     -1416.224          31.500

  20155843.381   105919776.741 7        46.000    20155843.841    82534913.381 7
       625.605          46.000
                  20155844.261   105919792.486 8       802.861          52.250


  20892020.827   109788359.391 7        43.000    20892021.977    85549380.240 7
      -491.184          43.000
                  20892020.917   109788360.123 8      -630.394          53.500


  21116768.139   110969443.898 7        43.250    21116769.349    86469714.287 7
     -1601.405          43.250
                  21116768.979   110969455.643 8     -2055.143          53.000


  23760711.225   124863402.023 5        30.000    23760710.945    97296161.263 5
     -1377.609          30.000
                  23760710.155   124863389.763 7     -1767.878          46.000
  23760711.035    97296156.029 6     -1377.526          40.250

  20875826.113   111554145.385 7        47.500    20875833.743    86764355.568 6
     -1078.487          41.250
                  20875826.443   111554166.126 7     -1386.662          47.750
                                                                  20875833.343
  86764341.314 7     -1078.521          42.500
  21740215.191   114245685.366 6        39.750    21740220.161    89022629.137 6
     -2197.546          39.750    21740219.091    85313352.504 7     -2105.966
        45.000    21740215.441   114245682.116 8     -2820.193          50.500
  21740219.891    89022621.912 8     -2197.550          49.750

  21419481.230   112560199.247 7        42.000    21419481.040    87709261.031 7
      -400.295          42.000
                  21419481.290   112560199.002 8      -513.722          52.500
  21419481.700    87709267.814 8      -400.304          49.500

  20770438.085   111185850.209 7        47.750    20770444.855    86477901.608 7
      2072.829          46.750
                  20770437.615   111185854.965 8      2665.063          48.000
                                                                  20770445.735
  86477927.358 7      2072.835          47.750
  22370760.090   119584617.987 7        45.000    22370768.750    93010279.015 6
     -2800.010          36.250
                  22370760.350   119584620.737 7     -3600.034          45.500
                                                                  22370768.100
  93010288.756 6     -2800.054          37.750
 14  8 29 20  2 34.0000000  0 22G23G11R12G25R19R17G13R 2R18G 6G 9G14-0.000192613
                                G12G20G 4G32G17R11G 1G31R 3R 1
  22201250.701   116668422.772 6        38.250    22201249.301    90910476.542 6
      2071.395          38.250
                  22201250.691   116668395.511 8      2658.303          49.500


  24282286.583   127604345.689 3        21.000    24282289.613    99431969.506 3
     -3044.306          21.000
                  24282289.253   127604336.395 7     -3906.583          42.250


  21083350.881   112623527.148 7        43.750    21083359.961    87596086.557 7
      2337.909          43.500
                  21083350.781   112623526.887 7      3005.952          45.000
                                                                  21083358.551
  87596068.304 7      2337.897          45.000
  24236047.516   127361308.281 3        18.750    24236049.886    99242577.397 3
       -47.604          18.750    24236055.436    95107470.580 6       -45.413
        36.250    24236050.376   127361325.055 6       -60.738          36.000
  24236054.296    99242580.152 6       -47.423          39.500

  22585296.717   120816130.639 7        44.500    22585303.367    93968105.566 6
      1995.764          40.750
                  22585295.337   120816146.397 7      2566.077          45.250
                                                                  22585302.707
  93968110.308 7      1995.749          42.000
  23104319.632   123635893.150 7        42.250    23104328.152    96161247.337 6
     -3483.385          38.750
                  23104318.852   123635901.914 7     -4478.488          42.250
                                                                  23104328.442
  96161266.080 6     -3483.338          40.500
  24295237.849   127672360.847 3        21.500    24295239.459    99484959.600 3
      2773.837          21.500
                  24295238.159   127672577.592 6      3559.751          39.750


  19290044.106   102935420.423 9        54.000    19290051.226    80060910.366 8
      -639.594          51.000
                  19290044.056   102935843.171 9      -822.304          55.000
                                                                  19290051.006
  80060910.119 8      -639.602          52.000
  21132016.894   112804170.417 8        48.250    21132025.294    87736583.463 7
     -1420.048          45.500
                  21132017.164   112804060.162 8     -1825.689          48.500
                                                                  21132024.934
  87736589.214 7     -1420.047          47.000
  24511612.545   128809397.009 4        27.000    24511616.855   100370960.122 4
      2553.300          27.000    24511616.565    96188829.816 6      2446.875
        37.500    24511611.815   128809392.782 7      3276.684          43.000
  24511615.555   100370962.923 7      2553.291          42.500

  20406687.553   107237968.214 8        48.750    20406689.943    83562074.011 8
       546.794          48.750
                  20406687.743   107237982.964 9       701.746          55.250


  25055926.535   131669899.694 2        16.250    25055928.205   102599945.556 2
     -2777.737          16.250
                  25055930.405   131669904.460 6     -3564.682          38.250


  24971992.055   131228697.001 1        11.250    24971994.375   102256126.345 1
     -1416.367          11.250
                  24971991.875   131228697.743 6     -1817.457          36.000
  24971993.795   102256132.111 5     -1416.273          32.750

  20155690.391   105918973.818 7        45.750    20155691.001    82534287.723 7
       625.519          45.750
                  20155691.511   105918989.561 8       802.758          52.250


  20892140.744   109788989.745 7        43.250    20892141.864    85549871.426 7
      -491.405          43.250
                  20892140.834   109788990.488 8      -630.583          53.500


  21117159.105   110971498.852 7        43.000    21117160.775    86471315.543 7
     -1601.392          43.000
                  21117159.345   110971510.598 8     -2055.068          53.000


  23761047.557   124865169.730 4        29.500    23761047.737    97297538.688 4
     -1377.618          29.500
                  23761047.037   124865157.478 7     -1767.825          45.750
  23761047.857    97297533.462 6     -1377.585          41.000

  20876085.492   111555532.117 7        47.250    20876093.632    86765434.141 6
     -1078.835          41.000
                  20876085.002   111555552.859 7     -1386.999          47.750
                                                                  20876091.902
  86765419.882 7     -1078.857          42.000
  21740752.338   114248505.496 6        39.750    21740756.438    89024826.635 6
     -2197.637          39.750    21740755.708    85315458.441 7     -2106.038
        45.250    21740752.088   114248502.242 8     -2820.214          50.250
  21740756.628    89024819.415 8     -2197.632          49.750

  21419579.044   112560712.992 7        42.250    21419578.894    87709661.354 7
      -400.534          42.250
                  21419579.094   112560712.748 8      -513.972          52.500
  21419579.374    87709668.139 8      -400.531          49.500

  20769940.138   111183184.978 7        47.750    20769947.078    86475828.644 7
      2072.888          46.750
                  20769939.498   111183189.739 8      2665.229          48.250
                                                                  20769946.748
  86475854.397 7      2072.891          47.500
  22371433.747   119588217.803 7        45.000    22371442.117    93013078.873 6
     -2799.902          36.500
                  22371432.437   119588220.551 7     -3599.833          45.500
                                                                  22371443.267
  93013088.598 6     -2799.893          37.750
 14  8 29 20  2 35.0000000  0 22G23G11R12G25R19R17G13R 2R18G 6G 9G14-0.000192541
                                G12G20G 4G32G17R11G 1G31R 3R 1
  22200744.040   116665765.156 6        38.000    22200743.380    90908405.677 6
      2070.716          38.000
                  22200745.130   116665737.900 8      2657.428          49.500


  24283030.401   127608252.819 3        21.500    24283033.461    99435014.050 3
     -3044.671          21.500
                  24283031.581   127608243.566 7     -3907.260          42.000


  21082788.201   112620522.107 7        43.750    21082797.101    87593749.300 7
      2337.035          43.750
                  21082788.301   112620521.839 7      3004.760          44.750
                                                                  21082797.461
  87593731.059 7      2337.018          45.250
  24236058.834   127361369.945 3        18.750    24236064.504    99242625.442 3
       -48.560          18.750    24236067.664    95107516.646 6       -46.480
        36.500    24236061.004   127361386.694 5       -62.237          35.750
  24236064.194    99242628.216 6       -48.520          39.500

  22584817.558   120813565.426 7        44.500    22584823.298    93966110.394 6
      1994.907          40.750
                  22584818.508   120813581.180 7      2564.980          45.500
                                                                  22584821.888
  93966115.142 7      1994.898          42.250
  23105156.994   123640372.386 6        41.750    23105165.414    96164731.175 6
     -3483.887          39.250
                  23105156.184   123640381.135 7     -4479.306          42.250
                                                                  23105163.424
  96164749.928 6     -3483.883          40.750
  24294563.410   127668801.593 3        21.500    24294561.350    99482186.144 3
      2773.468          21.500
                  24294561.110   127669018.334 6      3559.281          40.000


  19290198.279   102936243.526 9        54.250    19290205.529    80061550.560 8
      -640.412          51.250
                  19290198.479   102936666.276 9      -823.383          55.250
                                                                  19290205.909
  80061550.311 8      -640.414          52.250
  21132358.986   112805997.100 8        48.500    21132367.166    87738004.225 7
     -1421.110          45.500
                  21132359.446   112805886.849 8     -1827.089          48.500
                                                                  21132366.746
  87738009.974 7     -1421.083          47.000
  24510988.944   128806121.038 4        26.750    24510992.404   100368407.443 4
      2552.520          26.750    24510993.464    96186383.479 6      2446.179
        37.250    24510987.824   128806116.788 7      3275.824          42.500
  24510992.294   100368410.220 7      2552.562          42.500

  20406554.086   107237267.228 8        48.750    20406556.646    83561527.787 8
       545.992          48.750
                  20406554.506   107237281.975 9       700.679          55.000


  25056603.501   131673464.979 2        16.250    25056607.311   102602723.723 2
     -2778.135          16.250
                  25056609.171   131673469.754 6     -3565.393          38.000


  24972338.247   131230515.167 1        10.500    24972341.117   102257543.146 1
     -1416.926          10.500
                  24972337.667   131230515.901 5     -1818.383          35.000
  24972340.807   102257548.852 5     -1416.979          32.500

  20155537.981   105918171.833 7        45.750    20155538.391    82533662.799 7
       624.716          45.750
                  20155538.581   105918187.574 8       801.719          52.250


  20892260.917   109789621.220 7        43.000    20892262.027    85550363.486 7
      -492.374          43.000
                  20892261.317   109789621.960 8      -631.837          53.500


  21117550.320   110973554.599 7        43.000    21117551.880    86472917.427 7
     -1602.021          43.000
                  21117551.150   110973566.346 8     -2055.938          52.750


  23761384.191   124866938.370 4        29.500    23761384.031    97298916.858 4
     -1378.365          29.500
                  23761383.941   124866926.127 7     -1768.900          45.750
  23761385.111    97298911.631 6     -1378.373          40.500

  20876345.424   111556920.195 7        47.500    20876353.334    86766513.759 6
     -1080.049          40.750
                  20876344.964   111556940.930 7     -1388.573          47.750
                                                                  20876353.434
  86766499.503 7     -1080.016          42.250
  21741289.111   114251326.493 6        40.000    21741293.351    89027024.814 6
     -2198.340          40.000    21741292.681    85317565.035 7     -2106.775
        45.000    21741289.031   114251323.239 8     -2821.213          50.250
  21741293.201    89027017.592 8     -2198.370          49.750

  21419676.769   112561227.838 7        42.250    21419676.449    87710062.536 7
      -401.458          42.250
                  21419677.369   112561227.597 8      -515.203          52.500
  21419677.339    87710069.322 8      -401.462          49.250

  20769442.339   111180520.495 7        47.750    20769449.439    86473756.272 7
      2072.243          46.750
                  20769443.009   111180525.256 8      2664.352          48.500
                                                                  20769448.699
  86473782.023 7      2072.263          47.750
  22372106.898   119591818.203 7        45.000    22372115.318    93015879.182 6
     -2800.325          36.750
                  22372107.248   119591820.962 7     -3600.462          45.500
                                                                  22372114.318
  93015888.926 6     -2800.361          38.000
 14  8 29 20  2 36.0000000  0 22G23G11R12G25R19R17G13R 2R18G 6G 9G14-0.000192470
                                G12G20G 4G32G17R11G 1G31R 3R 1
  22200238.534   116663107.584 6        38.000    22200237.594    90906334.843 6
      2071.034          38.000
                  22200238.894   116663080.328 8      2657.803          49.500


  24283774.079   127612159.914 3        21.500    24283773.799    99438058.470 3
     -3044.210          21.500
                  24283774.889   127612150.616 7     -3906.843          42.250


  21082225.706   112617517.479 7        43.750    21082235.426    87591412.369 7
      2336.989          43.500
                  21082226.346   112617517.209 7      3004.667          44.250
                                                                  21082234.176
  87591394.127 7      2336.983          45.250
  24236071.965   127361432.002 3        18.750    24236076.025    99242673.802 3
       -48.286          18.750    24236079.405    95107562.986 6       -46.311
        36.500    24236071.095   127361448.777 6       -61.985          36.500
  24236076.815    99242676.570 6       -48.275          39.000

  22584338.168   120811000.695 7        44.750    22584344.868    93964115.612 6
      1994.870          41.000
                  22584337.788   120811016.448 7      2564.820          45.250
                                                                  22584342.198
  93964120.352 7      1994.874          42.000
  23105994.007   123644851.612 6        41.750    23106001.897    96168215.024 6
     -3483.671          38.500
                  23105995.007   123644860.371 7     -4478.979          42.000
                                                                  23106002.987
  96168233.774 6     -3483.681          40.750
  24293884.882   127665242.203 3        22.500    24293884.982    99479412.638 3
      2773.516          22.500
                  24293883.172   127665458.947 6      3559.641          40.000


  19290352.712   102937066.914 9        54.250    19290359.672    80062190.971 8
      -640.320          51.250
                  19290352.432   102937489.667 9      -823.288          55.250
                                                                  19290359.822
  80062190.728 8      -640.331          52.500
  21132701.304   112807824.409 8        48.500    21132709.614    87739425.461 7
     -1421.300          45.500
                  21132702.364   112807714.159 8     -1827.351          48.750
                                                                  21132709.914
  87739431.213 7     -1421.295          46.500
  24510363.806   128802845.065 4        27.250    24510368.566   100365854.754 4
      2552.855          27.250    24510369.636    96183937.150 6      2446.439
        37.250    24510365.776   128802840.834 7      3276.167          42.500
  24510369.106   100365857.531 7      2552.834          42.250

  20406420.721   107236566.516 8        48.750    20406423.191    83560981.779 8
       546.121          48.750
                  20406420.901   107236581.264 9       700.840          55.250


  25057282.789   131677030.091 2        16.250    25057286.779   102605501.751 2
     -2777.668          16.250
                  25057286.609   131677034.838 6     -3564.871          38.000


  24972684.025   131232333.675 1        10.500    24972686.845   102258960.091 1
     -1416.911          10.500
                  24972687.135   131232334.366 5     -1818.241          34.500
  24972686.975   102258965.821 5     -1416.895          32.750

  20155385.424   105917370.138 7        45.500    20155385.764    82533038.103 7
       624.810          45.500
                  20155386.214   105917385.875 8       801.816          52.250


  20892380.993   109790253.162 7        43.250    20892382.063    85550855.907 7
      -492.414          43.250
                  20892381.153   109790253.897 8      -631.929          53.500


  21117941.573   110975610.512 7        43.250    21117943.283    86474519.433 7
     -1601.843          43.250
                  21117942.103   110975622.266 8     -2055.774          52.750


  23761720.180   124868707.346 4        29.250    23761720.730    97300295.247 4
     -1378.364          29.250
                  23761720.170   124868695.068 7     -1768.813          45.750
  23761721.110    97300290.018 6     -1378.311          40.250

  20876605.208   111558308.924 7        47.500    20876613.408    86767593.885 6
     -1080.200          40.750
                  20876605.418   111558329.666 7     -1388.819          47.750
                                                                  20876612.738
  86767579.621 7     -1080.186          42.250
  21741825.741   114254147.712 6        39.750    21741830.581    89029223.169 6
     -2198.194          39.750    21741829.451    85319671.786 7     -2106.631
        45.250    21741825.461   114254144.462 8     -2821.069          50.250
  21741829.581    89029215.952 8     -2198.240          49.750

  21419774.678   112561743.148 7        42.000    21419774.778    87710464.076 7
      -401.517          42.000
                  21419775.248   112561742.903 8      -515.260          52.500
  21419775.258    87710470.864 8      -401.513          49.250

  20768944.504   111177856.107 7        47.750    20768951.484    86471683.972 7
      2072.441          47.000
                  20768944.454   111177860.861 8      2664.540          48.500
                                                                  20768951.774
  86471709.727 8      2072.433          48.000
  22372780.557   119595418.564 7        45.000    22372789.717    93018679.464 6
     -2799.983          36.250
                  22372780.657   119595421.308 7     -3600.019          45.500
                                                                  22372790.097
  93018689.201 6     -2799.994          37.750
 14  8 29 20  2 37.0000000  0 22G23G11R12G25R19R17G13R 2R18G 6G 9G14-0.000192400
                                G12G20G 4G32G17R11G 1G31R 3R 1
  22199732.984   116660449.861 6        38.250    22199731.764    90904263.892 6
      2070.710          38.250
                  22199732.944   116660422.601 8      2657.420          49.750


  24284518.516   127616066.514 3        21.500    24284520.946    99441102.599 3
     -3044.250          21.500
                  24284517.946   127616057.229 7     -3906.749          42.250


  21081663.147   112614513.048 7        43.750    21081672.787    87589075.594 7
      2336.397          44.000
                  21081663.357   112614512.790 7      3003.876          44.000
                                                                  21081670.607
  87589057.348 7      2336.385          45.500
  24236083.417   127361494.329 3        19.750    24236088.147    99242722.431 3
       -49.481          19.750    24236091.857    95107609.552 6       -47.197
        36.250    24236084.007   127361511.086 5       -62.940          35.250
  24236087.777    99242725.160 6       -49.249          39.250

  22583858.524   120808436.250 7        44.500    22583864.624    93962121.048 6
      1994.056          41.250
                  22583859.814   120808452.017 7      2563.882          45.000
                                                                  22583865.454
  93962125.782 7      1994.088          42.250
  23106830.962   123649330.549 6        41.750    23106839.452    96171698.636 6
     -3483.854          39.000
                  23106831.712   123649339.300 6     -4479.177          41.750
                                                                  23106839.622
  96171717.390 6     -3483.878          40.750
  24293208.899   127661682.435 3        22.500    24293208.499    99476638.755 3
      2773.789          22.500
                  24293206.969   127661899.148 6      3559.576          40.250


  19290506.920   102937890.353 9        54.250    19290514.140    80062831.428 8
      -640.797          51.250
                  19290507.110   102938313.109 9      -823.891          55.000
                                                                  19290513.850
  80062831.179 8      -640.790          52.500
  21133043.831   112809652.100 8        48.250    21133052.191    87740846.992 7
     -1422.066          45.500
                  21133043.641   112809541.852 8     -1828.342          49.000
                                                                  21133051.791
  87740852.747 7     -1422.066          46.750
  24509742.810   128799568.916 4        27.250    24509743.890   100363301.872 4
      2552.765          27.250    24509746.260    96181490.658 6      2446.261
        37.750    24509740.900   128799564.646 7      3275.773          42.500
  24509745.230   100363304.671 7      2552.603          42.750

  20406287.478   107235865.875 8        48.500    20406289.878    83560435.823 8
       545.596          48.500
                  20406287.898   107235880.621 9       700.169          55.250


  25057961.800   131680594.727 2        16.000    25057965.120   102608279.386 2
     -2777.804          16.000
                  25057964.980   131680599.495 6     -3564.804          38.000


  24973028.518   131234152.346 1        10.750    24973028.448   102260377.140 1
     -1417.303          10.750
                  24973027.178   131234153.035 5     -1819.088          35.250
  24973032.918   102260382.933 5     -1417.504          32.750

  20155232.909   105916568.514 7        45.750    20155233.339    82532413.458 7
       624.315          45.750
                  20155233.209   105916584.251 8       801.220          52.500


  20892501.417   109790885.338 7        43.000    20892502.847    85551348.513 7
      -493.027          43.000
                  20892501.697   109790886.076 8      -632.681          53.500


  21118332.724   110977666.328 7        43.500    21118334.414    86476121.376 7
     -1602.231          43.500
                  21118333.794   110977678.077 8     -2056.180          52.750


  23762056.173   124870476.300 4        29.500    23762056.543    97301673.697 4
     -1378.823          29.500
                  23762057.053   124870464.066 7     -1769.481          45.750
  23762058.993    97301668.455 6     -1378.759          40.500

  20876865.544   111559698.111 7        47.250    20876873.534    86768674.354 6
     -1081.001          41.250
                  20876864.504   111559718.853 8     -1389.817          48.000
                                                                  20876871.334
  86768660.097 7     -1081.024          42.500
  21742362.488   114256968.948 6        39.500    21742367.078    89031421.534 6
     -2198.691          39.500    21742366.358    85321778.545 7     -2107.067
        45.000    21742362.348   114256965.692 8     -2821.639          50.500
  21742366.988    89031414.308 8     -2198.695          49.750

  21419873.065   112562258.688 7        42.250    21419872.875    87710865.795 7
      -402.105          42.250
                  21419873.595   112562258.436 8      -516.023          52.750
  21419873.105    87710872.588 8      -402.111          49.250

  20768447.119   111175191.570 7        47.750    20768453.649    86469611.555 7
      2072.151          46.750
                  20768446.939   111175196.330 8      2664.227          48.750
                                                                  20768454.099
  86469637.307 7      2072.156          47.750
  22373453.634   119599018.636 7        45.000    22373463.144    93021479.518 6
     -2800.211          36.750
                  22373453.454   119599021.392 7     -3600.264          45.500
                                                                  22373464.144
  93021489.255 6     -2800.158          38.000
 14  8 29 20  2 38.0000000  0 22G23G11R12G25R19R17G13R 2R18G 6G 9G14-0.000192329
                                G12G20G 4G32G17R11G 1G31R 3R 1
  22199227.311   116657792.461 6        38.250    22199226.341    90902193.189 6
      2070.313          38.250
                  22199227.311   116657765.198 8      2656.947          49.500


  24285261.037   127619973.285 3        21.500    24285264.837    99444146.817 3
     -3044.315          21.500
                  24285261.647   127619964.022 6     -3907.151          41.750


  21081100.848   112611509.304 7        43.750    21081110.648    87586739.356 7
      2335.722          43.750
                  21081098.728   112611509.043 7      3003.096          44.500
                                                                  21081108.618
  87586721.103 7      2335.729          45.500
  24236096.159   127361557.300 3        19.750    24236098.129    99242771.399 3
       -49.600          19.750    24236102.889    95107656.565 6       -47.599
        36.750    24236096.209   127361574.101 5       -63.778          35.250
  24236101.079    99242774.223 6       -49.725          38.500

  22583379.184   120805872.526 7        44.250    22583385.754    93960127.039 6
      1993.449          41.000
                  22583380.164   120805888.272 7      2563.000          45.000
                                                                  22583386.494
  93960131.777 6      1993.444          41.750
  23107667.627   123653809.734 6        41.500    23107676.067    96175182.441 6
     -3484.192          39.000
                  23107668.877   123653818.486 6     -4479.678          41.500
                                                                  23107675.077
  96175201.202 6     -3484.249          40.250
  24292528.454   127658122.843 3        22.250    24292530.464    99473865.093 3
      2773.318          22.250
                  24292530.154   127658339.577 6      3559.255          40.250


  19290661.437   102938714.383 9        54.250    19290668.377    80063472.337 8
      -641.422          51.250
                  19290661.437   102939137.137 9      -824.672          55.000
                                                                  19290668.237
  80063472.091 8      -641.425          52.250
  21133386.481   112811480.656 8        48.500    21133394.831    87742269.204 7
     -1422.832          45.500
                  21133386.841   112811370.410 8     -1829.378          49.000
                                                                  21133395.131
  87742274.956 7     -1422.825          46.750
  24509118.135   128796293.047 4        26.750    24509119.725   100360749.263 4
      2552.377          26.750    24509122.865    96179044.397 6      2445.932
        37.250    24509117.215   128796288.780 7      3275.439          42.750
  24509122.235   100360752.058 7      2552.257          42.750

  20406154.205   107235165.781 8        48.750    20406156.605    83559890.299 8
       545.040          48.750
                  20406154.805   107235180.533 9       699.493          55.250


  25058642.595   131684159.510 2        16.000    25058645.545   102611057.084 2
     -2777.826          16.000
                  25058643.905   131684164.240 6     -3565.080          37.500


  24973372.537   131235971.523 1        10.750    24973377.627   102261794.708 1
     -1418.191          10.750
                  24973379.017   131235972.261 5     -1819.958          34.750
  24973379.087   102261800.494 5     -1418.144          32.250

  20155080.520   105915767.450 7        46.000    20155080.800    82531789.252 7
       623.758          46.000
                  20155081.320   105915783.194 8       800.476          52.500


  20892621.789   109791518.247 7        43.250    20892623.209    85551841.691 7
      -493.745          43.250
                  20892622.139   109791518.985 8      -633.616          53.500


  21118724.006   110979722.576 7        43.250    21118725.736    86477723.636 7
     -1602.691          43.250
                  21118725.176   110979734.314 8     -2056.757          53.000


  23762392.778   124872245.857 4        29.500    23762393.558    97303052.557 4
     -1379.334          29.500
                  23762392.938   124872233.624 7     -1770.168          45.500
  23762396.108    97303047.339 6     -1379.344          40.500

  20877125.416   111561088.243 7        47.500    20877133.976    86769755.569 6
     -1081.859          41.000
                  20877126.736   111561108.980 8     -1390.937          48.000
                                                                  20877134.556
  86769741.304 7     -1081.858          42.000
  21742899.217   114259790.678 6        39.750    21742903.837    89033620.271 6
     -2199.132          39.750    21742903.387    85323885.681 7     -2107.543
        45.250    21742899.717   114259787.412 8     -2822.266          50.250
  21742904.047    89033613.049 8     -2199.167          49.750

  21419971.124   112562774.948 7        42.250    21419971.054    87711268.075 7
      -402.814          42.250
                  21419971.714   112562774.704 8      -516.974          52.500
  21419971.214    87711274.873 8      -402.823          49.250

  20767949.126   111172527.385 7        47.750    20767955.976    86467539.402 7
      2071.799          47.000
                  20767948.516   111172532.132 8      2663.727          48.750
                                                                  20767955.806
  86467565.159 8      2071.776          48.250
  22374127.410   119602618.946 7        44.750    22374136.110    93024279.749 6
     -2800.517          36.250
                  22374126.300   119602621.689 7     -3600.707          45.750
                                                                  22374134.140
  93024289.501 6     -2800.507          38.250
 14  8 29 20  2 39.0000000  0 22G23G11R12G25R19R17G13R 2R18G 6G 9G14-0.000192258
                                G12G20G 4G32G17R11G 1G31R 3R 1
  22198721.893   116655135.514 6        38.500    22198720.253    90900122.840 6
      2070.465          38.500
                  22198721.663   116655108.252 8      2657.059          49.750


  24286005.333   127623880.274 3        21.500    24286007.923    99447191.237 3
     -3044.146          21.500
                  24286005.813   127623871.009 6     -3906.823          41.750


  21080538.553   112608506.380 7        43.500    21080548.033    87584403.746 7
      2335.612          43.750
                  21080540.493   112608506.116 7      3002.946          44.250
                                                                  21080547.823
  87584385.496 7      2335.622          45.250
  24236108.663   127361621.182 3        19.750    24236112.733    99242821.180 3
       -49.756          19.750    24236115.523    95107704.235 6       -47.771
        36.250    24236108.033   127361637.931 5       -63.994          35.250
  24236112.583    99242823.970 6       -49.841          38.750

  22582900.238   120803309.680 7        44.750    22582906.568    93958133.719 6
      1993.342          40.750
                  22582901.788   120803325.434 7      2562.885          44.750
                                                                  22582908.078
  93958138.454 7      1993.298          42.000
  23108505.341   123658289.238 6        41.500    23108513.031    96178666.496 6
     -3483.849          39.000
                  23108504.081   123658297.969 6     -4479.319          41.000
                                                                  23108512.571
  96178685.252 6     -3483.921          40.250
  24291852.032   127654563.557 3        21.000    24291852.312    99471091.604 3
      2773.677          21.000
                  24291851.622   127654780.274 6      3559.578          40.500


  19290816.049   102939539.100 9        54.250    19290823.039    80064113.783 8
      -641.413          51.250
                  19290816.259   102939961.851 9      -824.669          55.250
                                                                  19290822.249
  80064113.535 8      -641.416          52.250
  21133729.157   112813310.220 8        48.750    21133737.167    87743692.206 7
     -1423.109          45.750
                  21133729.677   112813199.977 8     -1829.709          49.250
                                                                  21133737.787
  87743697.955 7     -1423.105          46.750
  24508495.431   128793017.587 4        27.250    24508497.891   100358196.998 4
      2552.410          27.250    24508499.591    96176598.452 6      2446.062
        37.500    24508494.121   128793013.314 7      3275.676          42.250
  24508498.691   100358199.754 7      2552.422          42.500

  20406021.056   107234466.366 8        48.750    20406023.606    83559345.297 8
       545.019          48.750
                  20406021.556   107234481.113 9       699.426          55.500


  25059321.416   131687724.470 2        16.000    25059323.766   102613834.945 2
     -2777.640          16.000
                  25059320.716   131687729.203 6     -3564.661          37.500


  24973721.489   131237791.350 1        10.750    24973722.419   102263212.862 1
     -1418.268          10.750
                  24973724.339   131237792.175 5     -1819.988          34.000
  24973727.539   102263218.619 5     -1418.257          32.750

  20154928.115   105914967.066 7        45.500    20154928.615    82531165.574 7
       623.715          45.500
                  20154928.785   105914982.804 8       800.392          52.500


  20892742.350   109792152.005 7        43.000    20892743.780    85552335.528 7
      -493.873          43.000
                  20892742.910   109792152.740 8      -633.811          53.500


  21119115.615   110981779.347 7        43.500    21119116.875    86479326.317 7
     -1602.618          43.500
                  21119116.555   110981791.088 8     -2056.724          53.000


  23762730.698   124874016.101 4        29.250    23762731.368    97304431.952 4
     -1379.333          29.250
                  23762730.228   124874003.856 7     -1770.200          45.500
  23762732.878    97304426.740 6     -1379.413          40.250

  20877385.686   111562479.440 7        47.250    20877393.826    86770837.609 6
     -1082.189          40.750
                  20877385.856   111562500.180 8     -1391.400          48.250
                                                                  20877393.736
  86770823.347 7     -1082.201          42.000
  21743436.594   114262613.021 6        40.000    21743441.164    89035819.511 6
     -2199.228          40.000    21743440.454    85325993.281 7     -2107.601
        45.000    21743437.104   114262609.765 8     -2822.334          50.250
  21743441.054    89035812.284 8     -2199.225          49.750

  21420069.563   112563292.068 7        42.500    21420069.863    87711671.024 7
      -402.992          42.500
                  21420069.743   112563291.817 8      -517.196          52.500
  21420069.363    87711677.818 8      -402.995          49.250

  20767451.654   111169863.656 7        47.750    20767458.714    86465467.615 7
      2071.902          46.750
                  20767451.344   111169868.415 8      2663.880          48.750
                                                                  20767458.954
  86465493.375 8      2071.889          48.000
  22374800.785   119606219.599 7        45.000    22374809.965    93027080.253 6
     -2800.310          36.000
                  22374801.285   119606222.355 7     -3600.430          46.000
                                                                  22374805.915
  93027090.006 6     -2800.317          38.250
 14  8 29 20  2 40.0000000  0 22G23G11R12G25R19R17G13R 2R18G 6G 9G14-0.000192187
                                G12G20G 4G32G17R11G 1G31R 3R 1
  22198215.650   116652478.733 6        38.500    22198214.930    90898052.631 6
      2069.990          38.500
                  22198216.480   116652451.480 8      2656.457          49.750


  24286746.341   127627787.233 3        21.500    24286747.971    99450235.624 3
     -3044.500          21.500
                  24286748.861   127627778.000 7     -3907.216          42.000


  21079976.970   112605504.020 7        43.750    21079986.560    87582068.585 7
      2334.687          43.750
                  21079976.410   112605503.755 7      3001.774          44.250
                                                                  21079985.770
  87582050.326 7      2334.704          45.500
  24236118.849   127361685.590 3        19.000    24236126.129    99242871.359 3
       -50.609          19.000    24236128.309    95107752.317 6       -48.507
        36.250    24236122.719   127361702.321 5       -65.008          35.500
  24236124.859    99242874.139 6       -50.608          39.250

  22582421.435   120800747.465 7        44.500    22582427.805    93956140.882 6
      1992.442          41.250
                  22582420.675   120800763.208 7      2561.773          45.000
                                                                  22582428.025
  93956145.620 7      1992.431          42.250
  23109342.059   123662768.834 6        41.750    23109350.529    96182150.634 6
     -3484.373          38.500
                  23109341.419   123662777.568 6     -4479.897          41.250
                                                                  23109347.519
  96182169.383 6     -3484.395          40.000
  24291175.429   127651004.281 3        21.000    24291175.609    99468318.165 3
      2773.227          21.000
                  24291172.559   127651220.958 6      3558.975          40.750


  19290970.595   102940364.236 9        54.250    19290977.625    80064755.557 8
      -642.143          51.250
                  19290970.925   102940786.993 9      -825.595          55.000
                                                                  19290976.795
  80064755.312 8      -642.155          52.500
  21134071.931   112815140.516 8        48.750    21134079.921    87745115.766 7
     -1424.085          45.750
                  21134072.721   112815030.267 8     -1830.924          49.250
                                                                  21134079.941
  87745121.518 7     -1424.068          46.750
  24507871.157   128789742.267 4        26.500    24507874.207   100355644.789 4
      2551.967          26.500    24507876.537    96174152.596 6      2445.631
        37.500    24507869.617   128789738.019 7      3275.064          42.250
  24507875.457   100355647.573 7      2551.958          42.250

  20405887.921   107233767.375 8        48.750    20405890.541    83558800.630 8
       544.309          48.750
                  20405888.161   107233782.121 9       698.529          55.500


  25059997.278   131691289.285 2        16.000    25060001.128   102616612.752 2
     -2777.802          16.000
                  25060001.488   131691294.039 6     -3564.989          37.250


  24974066.802   131239611.772 1        10.750    24974070.562   102264631.351 1
     -1418.838          10.750
                  24974070.222   131239612.590 5     -1820.898          34.750
  24974072.562   102264637.163 5     -1419.054          33.000

  20154776.091   105914167.099 7        45.750    20154776.401    82530542.222 7
       623.008          45.750
                  20154776.601   105914182.837 8       799.515          52.500


  20892862.975   109792786.363 7        43.000    20892864.555    85552829.830 7
      -494.731          43.000
                  20892863.885   109792787.105 8      -634.898          53.500


  21119507.219   110983836.387 7        43.500    21119508.319    86480929.201 7
     -1603.222          43.500
                  21119508.039   110983848.138 8     -2057.426          53.000


  23763067.356   124875786.767 4        29.500    23763066.676    97305811.674 4
     -1380.043          29.500
                  23763066.466   124875774.515 7     -1771.156          45.500
  23763069.396    97305806.467 6     -1380.090          40.250

  20877646.259   111563871.448 7        47.250    20877653.979    86771920.287 6
     -1083.215          41.250
                  20877646.939   111563892.195 8     -1392.713          48.250
                                                                  20877654.239
  86771906.024 7     -1083.231          42.250
  21743974.137   114265435.721 6        39.250    21743978.237    89038019.012 6
     -2199.856          39.250    21743977.467    85328101.135 7     -2108.206
        45.250    21743974.017   114265432.469 8     -2823.100          50.500
  21743977.937    89038011.790 8     -2199.859          49.750

  21420168.196   112563809.767 7        42.250    21420168.396    87712074.428 7
      -403.826          42.250
                  21420167.886   112563809.515 8      -518.271          52.250
  21420167.926    87712081.227 8      -403.844          49.000

  20766954.144   111167200.142 7        47.750    20766960.804    86463395.996 7
      2071.360          47.000
                  20766953.244   111167204.891 8      2663.164          48.750
                                                                  20766961.434
  86463421.755 8      2071.354          48.250
  22375474.865   119609820.368 7        44.500    22375483.285    93029880.859 6
     -2800.842          36.500
                  22375474.005   119609823.129 7     -3601.061          46.000
                                                                  22375484.215
  93029890.610 6     -2800.861          38.250
 14  8 29 20  2 41.0000000  0 22G23G11R12G25R19R17G13R 2R18G 6G 9G14-0.000192117
                                G12G20G 4G32G17R11G 1G31R 3R 1
  22197710.372   116649822.314 6        38.500    22197709.562    90895982.690 6
      2069.948          38.500
                  22197711.542   116649795.057 8      2656.413          49.750


  24287490.858   127631694.388 3        21.000    24287494.258    99453280.152 3
     -3044.403          21.000
                  24287492.328   127631685.115 6     -3907.006          41.750


  21079414.376   112602502.350 7        43.500    21079423.946    87579733.951 7
      2334.416          43.750
                  21079414.776   112602502.097 7      3001.325          44.000
                                                                  21079423.476
  87579715.694 7      2334.424          45.250
  24236132.489   127361750.723 3        19.000    24236135.589    99242922.109 3
       -51.007          19.000    24236140.009    95107800.956 6       -48.855
        37.000    24236134.789   127361767.470 5       -65.236          35.250
  24236136.999    99242924.884 6       -50.978          39.250

  22581942.181   120798186.002 7        44.250    22581948.881    93954148.638 6
      1992.058          41.250
                  22581941.721   120798201.752 7      2561.218          45.000
                                                                  22581948.941
  93954153.384 7      1992.059          42.000
  23110179.339   123667248.701 6        41.500    23110187.169    96185634.975 6
     -3484.481          38.250
                  23110179.189   123667257.455 6     -4480.002          41.750
                                                                  23110185.009
  96185653.732 6     -3484.488          39.750
  24290498.947   127647445.158 3        22.000    24290495.857    99465544.782 3
      2773.390          22.000
                  24290495.277   127647661.864 6      3559.079          40.250


  19291125.403   102941189.940 9        54.250    19291132.333    80065397.770 8
      -642.378          51.500
                  19291124.943   102941612.696 9      -825.911          54.750
                                                                  19291132.233
  80065397.521 8      -642.381          52.500
  21134415.217   112816971.709 8        48.750    21134423.177    87746540.025 7
     -1424.536          45.500
                  21134416.097   112816861.464 8     -1831.567          49.250
                                                                  21134423.047
  87746545.780 7     -1424.542          46.750
  24507247.184   128786467.271 4        27.000    24507251.054   100353092.853 4
      2551.924          27.000    24507252.934    96171706.988 6      2445.631
        37.500    24507246.714   128786463.034 7      3274.940          42.500
  24507251.604   100353095.627 7      2551.931          42.500

  20405755.205   107233068.949 8        48.750    20405757.615    83558256.402 8
       544.053          48.750
                  20405755.335   107233083.699 9       698.187          55.500


  25060676.107   131694854.272 2        16.250    25060678.077   102619390.626 2
     -2777.822          16.250
                  25060678.677   131694858.981 6     -3564.924          37.250


  24974414.910   131241432.916 1        10.000    24974418.690   102266050.347 1
     -1419.036          10.000
                  24974416.170   131241433.664 5     -1821.423          35.500
  24974421.070   102266056.157 5     -1419.133          33.000

  20154623.778   105913367.713 7        45.750    20154624.288    82529919.328 7
       622.755          45.750
                  20154624.538   105913383.453 8       799.210          52.750


  20892984.022   109793421.476 7        42.750    20892985.042    85553324.719 7
      -495.109          42.750
                  20892984.102   109793422.210 8      -635.396          53.500


  21119898.414   110985893.875 7        43.500    21119900.134    86482532.443 7
     -1603.361          43.500
                  21119899.364   110985905.624 8     -2057.613          53.250


  23763404.815   124877558.004 4        29.250    23763404.375    97307191.889 4
     -1380.355          29.250
                  23763403.835   124877545.769 7     -1771.488          45.750
  23763406.055    97307186.660 6     -1380.357          40.750

  20877907.052   111565264.427 7        47.250    20877914.912    86773003.719 6
     -1083.745          41.000
                  20877905.252   111565285.177 8     -1393.387          48.250
                                                                  20877916.652
  86772989.457 7     -1083.734          42.000
  21744510.982   114268258.938 6        39.500    21744515.652    89040218.923 6
     -2200.040          39.500    21744514.642    85330209.384 7     -2108.400
        45.250    21744511.872   114268255.687 8     -2823.417          50.500
  21744515.362    89040211.704 8     -2200.063          49.750

  21420266.745   112564328.206 7        42.500    21420267.035    87712478.411 7
      -404.178          42.500
                  21420266.755   112564327.958 8      -518.678          52.250
  21420266.925    87712485.206 8      -404.166          49.000

  20766456.211   111164537.006 7        47.750    20766463.471    86461324.666 7
      2071.303          46.750
                  20766455.811   111164541.758 8      2663.062          48.500
                                                                  20766463.271
  86461350.421 8      2071.306          48.000
  22376148.410   119613421.385 7        44.750    22376156.930    93032681.640 6
     -2800.836          36.500
                  22376148.130   119613424.134 7     -3601.028          46.500
                                                                  22376159.640
  93032691.364 6     -2800.830          38.250
 14  8 29 20  2 42.0000000  0 22G23G11R12G25R19R17G13R 2R18G 6G 9G14-0.000192046
                                G12G20G 4G32G17R11G 1G31R 3R 1
  22197205.182   116647166.090 6        38.250    22197204.252    90893912.909 6
      2069.882          38.250
                  22197205.672   116647138.833 8      2656.368          49.500


  24288234.405   127635601.481 3        21.000    24288235.035    99456324.681 3
     -3044.610          21.000
                  24288235.385   127635592.218 6     -3906.862          41.750


  21078852.612   112599501.237 7        43.750    21078862.362    87577399.752 7
      2334.168          44.000
                  21078853.582   112599500.978 7      3001.109          44.000
                                                                  21078861.882
  87577381.502 7      2334.182          45.250
  24236144.076   127361816.406 3        19.000    24236148.406    99242973.264 3
       -50.926          19.000    24236152.466    95107850.001 6       -49.027
        36.250    24236145.546   127361833.152 5       -65.640          34.750
  24236150.256    99242976.057 6       -51.185          39.250

  22581463.824   120795625.153 7        44.500    22581470.124    93952156.865 6
      1991.725          41.500
                  22581464.164   120795640.904 7      2560.825          45.250
                                                                  22581468.774
  93952161.617 7      1991.706          42.500
  23111016.555   123671728.626 6        41.750    23111024.505    96189119.355 6
     -3484.253          38.500
                  23111013.895   123671737.372 7     -4479.750          42.000
                                                                  23111025.145
  96189138.112 6     -3484.298          39.750
  24289818.758   127643886.046 3        22.000    24289818.988    99462771.464 3
      2773.494          22.000
                  24289818.538   127644102.764 6      3559.154          40.500


  19291280.225   102942016.059 9        54.000    19291287.345    80066040.309 8
      -642.557          51.250
                  19291280.065   102942438.809 9      -826.099          55.000
                                                                  19291287.385
  80066040.058 8      -642.548          52.500
  21134758.562   112818803.667 8        48.750    21134766.652    87747964.880 7
     -1425.028          45.750
                  21134758.712   112818693.409 8     -1832.170          49.250
                                                                  21134766.432
  87747970.630 7     -1425.039          46.750
  24506624.443   128783192.425 4        26.500    24506627.663   100350541.012 4
      2551.958          26.500    24506629.683    96169261.501 6      2445.548
        37.750    24506623.503   128783188.187 7      3274.989          42.250
  24506628.773   100350543.808 7      2551.902          42.500

  20405622.391   107232370.936 8        48.750    20405624.811    83557712.498 8
       543.894          48.750
                  20405622.631   107232385.684 9       698.010          55.500


  25061353.781   131698419.144 2        16.250    25061356.371   102622168.480 2
     -2777.622          16.250
                  25061356.961   131698423.873 6     -3564.365          36.750


  24974764.467   131243254.426 1        10.000    24974763.937   102267469.727 1
     -1419.672          10.000
                  24974761.777   131243255.224 5     -1821.894          34.250
  24974767.467   102267475.531 5     -1419.567          33.000

  20154471.622   105912568.747 7        45.500    20154472.152    82529296.752 7
       622.577          45.500
                  20154472.432   105912584.475 8       798.982          52.750


  20893104.918   109794057.161 7        42.750    20893106.018    85553820.062 7
      -495.384          42.750
                  20893105.278   109794057.899 8      -635.737          53.500


  21120290.008   110987951.636 7        43.250    21120291.378    86484135.891 7
     -1603.372          43.250
                  21120290.788   110987963.378 8     -2057.646          53.250


  23763741.208   124879329.666 4        29.250    23763742.248    97308572.372 4
     -1380.464          29.250
                  23763741.308   124879317.409 7     -1771.684          45.750
  23763743.768    97308567.163 6     -1380.496          41.000

  20878167.926   111566658.234 7        47.500    20878175.626    86774087.790 6
     -1084.243          41.000
                  20878168.176   111566678.972 8     -1393.941          48.250
                                                                  20878176.636
  86774073.523 7     -1084.244          42.500
  21745048.412   114271082.503 6        40.250    21745052.642    89042419.102 6
     -2200.137          40.250    21745052.042    85332317.894 7     -2108.480
        45.500    21745048.692   114271079.255 8     -2823.513          50.500
  21745052.742    89042411.884 8     -2200.146          49.500

  21420365.182   112564847.239 7        42.500    21420365.692    87712882.853 7
      -404.501          42.500
                  21420365.222   112564846.989 8      -519.085          52.250
  21420365.782    87712889.652 8      -404.505          49.000

  20765958.850   111161874.112 7        47.750    20765965.870    86459253.526 7
      2071.204          46.750
                  20765958.110   111161878.865 8      2663.038          48.750
                                                                  20765965.780
  86459279.273 8      2071.199          48.250
  22376822.138   119617022.482 7        44.750    22376830.968    93035482.492 6
     -2800.694          36.500
                  22376821.308   119617025.247 7     -3600.844          46.250
                                                                  22376832.248
  93035492.210 6     -2800.688          38.750
 14  8 29 20  2 43.0000000  0 22G23G11R12G25R19R17G13R 2R18G 6G 9G14-0.000191975
                                G12G20G 4G32G17R11G 1G31R 3R 1
  22196699.478   116644510.087 6        38.250    22196698.928    90891843.292 6
      2069.571          38.250
                  22196700.168   116644482.825 8      2655.939          49.500


  24288978.853   127639508.620 3        21.000    24288979.433    99459369.152 3
     -3044.430          21.000
                  24288978.693   127639499.328 6     -3907.063          41.500


  21078291.444   112596500.692 7        44.000    21078300.604    87575065.998 7
      2333.596          43.500
                  21078290.254   112596500.437 7      3000.326          44.000
                                                                  21078299.464
  87575047.746 7      2333.625          44.500
  24236157.057   127361882.676 3        19.000    24236161.847    99243024.970 3
       -51.898          19.000    24236164.317    95107899.501 6       -49.602
        37.000    24236158.437   127361899.465 5       -66.374          35.500
  24236163.507    99243027.730 6       -51.786          38.750

  22580984.960   120793064.938 7        44.250    22580991.980    93950165.587 6
      1991.101          40.750
                  22580983.740   120793080.683 7      2559.942          45.250
                                                                  22580990.270
  93950170.327 7      1991.104          42.250
  23111853.858   123676208.699 7        42.000    23111862.308    96192603.864 6
     -3484.471          37.250
                  23111854.108   123676217.446 7     -4480.003          42.000
                                                                  23111859.598
  96192622.603 6     -3484.438          39.000
  24289141.048   127640326.972 3        22.000    24289144.328    99459998.177 3
      2773.456          22.000
                  24289142.038   127640543.708 6      3558.996          40.000


  19291434.972   102942842.649 9        54.250    19291442.222    80066683.211 8
      -643.031          50.750
                  19291434.872   102943265.400 9      -826.769          55.000
                                                                  19291441.742
  80066682.963 8      -643.034          52.000
  21135101.798   112820636.412 8        48.750    21135109.638    87749390.342 7
     -1425.754          45.000
                  21135102.658   112820526.161 8     -1833.125          49.250
                                                                  21135109.648
  87749396.091 7     -1425.749          46.250
  24506001.602   128779917.782 4        26.500    24506003.852   100347989.366 4
      2551.631          26.500    24506006.692    96166816.133 6      2445.282
        37.500    24506001.442   128779913.529 7      3274.500          42.000
  24506006.312   100347992.121 7      2551.645          42.500

  20405489.719   107231673.378 8        48.750    20405492.069    83557168.947 8
       543.453          48.750
                  20405489.799   107231688.132 9       697.439          55.500


  25062032.525   131701984.009 2        16.250    25062033.845   102624946.261 2
     -2777.657          16.250
                  25062035.205   131701988.719 6     -3564.969          36.750


  24975110.306   131245076.453 1        10.000    24975109.446   102268889.467 1
     -1419.728          10.000
                  24975110.046   131245077.177 5     -1821.950          34.250
  24975114.276   102268895.224 5     -1419.563          33.250

  20154319.876   105911770.230 7        45.500    20154320.166    82528674.532 7
       622.082          45.500
                  20154320.686   105911785.967 8       798.341          52.750


  20893226.077   109794693.484 7        42.750    20893227.537    85554315.894 7
      -496.016          42.750
                  20893226.367   109794694.222 8      -636.570          53.500


  21120681.777   110990009.707 7        43.250    21120683.217    86485739.587 7
     -1603.784          43.250
                  21120682.707   110990021.452 8     -2058.180          53.000


  23764079.502   124881101.798 4        28.750    23764079.572    97309953.272 4
     -1381.009          28.750
                  23764078.272   124881089.520 7     -1772.255          45.750
  23764079.552    97309948.027 6     -1380.954          40.500

  20878429.128   111568052.888 7        47.500    20878436.878    86775172.515 6
     -1085.020          40.500
                  20878430.308   111568073.624 8     -1395.009          48.500
                                                                  20878436.848
  86775158.245 7     -1084.972          42.250
  21745585.747   114273906.470 6        39.250    21745590.427    89044619.602 6
     -2200.602          39.250    21745589.397    85334426.697 7     -2108.908
        45.500    21745585.647   114273903.225 8     -2824.060          50.250
  21745589.687    89044612.387 8     -2200.609          49.750

  21420464.313   112565366.904 7        42.000    21420464.763    87713287.787 7
      -405.135          42.000
                  21420464.183   112565366.650 8      -519.936          52.250
  21420464.683    87713294.575 8      -405.121          49.000

  20765462.067   111159211.466 7        47.750    20765468.747    86457182.583 7
      2070.894          46.250
                  20765461.657   111159216.213 8      2662.585          48.750
                                                                  20765468.337
  86457208.331 7      2070.881          47.500
  22377495.702   119620623.712 7        44.500    22377504.312    93038283.437 5
     -2800.863          34.750
                  22377495.682   119620626.460 7     -3601.157          46.250
                                                                  22377504.152
  93038293.170 6     -2800.885          38.250
 14  8 29 20  2 44.0000000  0 22G23G11R12G25R19R17G13R 2R18G 6G 9G14-0.000191905
                                G12G20G 4G32G17R11G 1G31R 3R 1
  22196194.246   116641854.470 6        38.250    22196193.616    90889773.991 6
      2069.108          38.250
                  22196194.676   116641827.219 8      2655.365          49.500


  24289723.452   127643415.876 3        21.500    24289722.832    99462413.788 3
     -3044.716          21.500
                  24289722.742   127643406.634 7     -3907.543          42.000


  21077729.399   112593500.927 7        43.500    21077738.989    87572732.847 7
      2332.817          43.750
                  21077730.089   112593500.664 7      2999.305          44.000
                                                                  21077739.129
  87572714.600 7      2332.806          45.250
  24236170.190   127361949.751 3        18.750    24236176.500    99243077.178 3
       -52.395          18.750    24236177.480    95107949.582 6       -50.256
        36.500    24236169.910   127361966.515 6       -67.432          36.000
  24236175.430    99243079.969 6       -52.433          39.250

  22580506.316   120790505.523 7        44.250    22580513.316    93948174.934 6
      1990.378          41.250
                  22580504.486   120790521.282 7      2558.984          45.000
                                                                  22580513.056
  93948179.677 7      1990.390          42.500
  23112690.583   123680689.113 6        41.750    23112699.693    96196088.629 6
     -3485.019          38.250
                  23112689.663   123680697.863 7     -4480.716          42.000
                                                                  23112700.923
  96196107.370 6     -3485.022          39.750
  24288465.920   127636768.206 3        22.000    24288468.590    99457225.087 3
      2772.852          22.000
                  24288465.640   127636984.910 6      3558.490          40.250


  19291590.076   102943669.897 9        54.000    19291596.936    80067326.629 8
      -643.697          51.250
                  19291590.506   102944092.654 9      -827.641          55.000
                                                                  19291597.156
  80067326.381 8      -643.707          52.250
  21135445.185   112822470.078 8        48.750    21135453.165    87750816.532 7
     -1426.566          45.250
                  21135445.405   112822359.839 8     -1834.237          49.500
                                                                  21135452.885
  87750822.273 7     -1426.572          46.750
  24505380.162   128776643.461 4        26.000    24505381.472   100345437.969 4
      2551.235          26.000    24505383.452    96164371.027 6      2444.950
        38.000    24505378.042   128776639.224 7      3274.063          42.250
  24505383.332   100345440.719 7      2551.255          42.750

  20405356.929   107230976.447 8        48.750    20405359.319    83556625.880 8
       542.828          48.750
                  20405357.429   107230991.199 9       696.593          55.500


  25062712.190   131705548.949 2        16.250    25062713.610   102627724.194 2
     -2777.980          16.250
                  25062714.100   131705553.706 6     -3565.127          36.250


  24975457.470   131246899.080 1        10.000    24975456.750   102270309.682 1
     -1420.124          10.000
                  24975457.380   131246899.865 5     -1822.910          33.750
  24975461.780   102270315.494 5     -1420.458          32.500

  20154168.103   105910972.350 7        45.500    20154168.453    82528052.803 7
       621.473          45.500
                  20154168.853   105910988.094 8       797.509          52.750


  20893347.345   109795330.615 7        42.750    20893348.515    85554812.360 7
      -496.810          42.750
                  20893347.765   109795331.356 8      -637.610          53.500


  21121073.485   110992068.266 7        43.750    21121075.075    86487343.648 7
     -1604.326          43.750
                  21121074.625   110992080.011 8     -2058.916          53.250


  23764415.800   124882874.502 4        29.500    23764416.530    97311334.617 4
     -1381.644          29.500
                  23764415.520   124882862.261 7     -1773.099          46.000
  23764416.740    97311329.378 6     -1381.586          40.500

  20878689.958   111569448.559 7        47.500    20878698.198    86776258.042 6
     -1085.962          41.000
                  20878690.208   111569469.310 8     -1396.245          48.250
                                                                  20878696.858
  86776243.781 7     -1085.950          42.500
  21746123.381   114276731.001 6        39.750    21746127.671    89046820.535 6
     -2201.213          39.750    21746126.881    85336535.927 7     -2109.469
        45.500    21746123.541   114276727.750 8     -2824.882          50.500
  21746127.751    89046813.322 8     -2201.190          49.500

  21420563.725   112565887.353 7        42.500    21420563.505    87713693.329 7
      -405.918          42.500
                  21420563.085   112565887.101 8      -520.945          52.250
  21420563.125    87713700.123 8      -405.903          48.750

  20764964.428   111156549.258 8        48.000    20764971.358    86455111.978 7
      2070.395          46.750
                  20764963.408   111156554.008 8      2661.920          48.750
                                                                  20764971.068
  86455137.729 7      2070.392          47.750
  22378169.400   119624225.251 7        44.750    22378178.500    93041084.645 6
     -2801.316          36.500
                  22378169.460   119624228.003 7     -3601.742          46.250
                                                                  22378180.380
  93041094.369 6     -2801.341          38.250
 14  8 29 20  2 45.0000000  0 22G23G11R12G25R19R17G13R 2R18G 6G 9G14-0.000191834
                                G12G20G 4G32G17R11G 1G31R 3R 1
  22195688.582   116639198.931 6        37.750    22195688.312    90887704.732 6
      2069.239          37.750
                  22195689.172   116639171.676 8      2655.534          49.250


  24290466.391   127647323.044 3        21.500    24290465.981    99465458.356 3
     -3044.550          21.500
                  24290466.461   127647313.782 7     -3907.010          42.250


  21077167.629   112590501.575 7        43.250    21077177.819    87570400.020 7
      2332.698          43.500
                  21077167.589   112590501.319 7      2999.227          44.000
                                                                  21077176.639
  87570381.767 7      2332.713          45.250
  24236181.682   127362017.356 3        18.750    24236186.742    99243129.831 3
       -52.853          18.750    24236190.782    95108000.014 6       -50.682
        37.000    24236183.002   127362034.071 6       -67.875          36.250
  24236191.102    99243132.605 6       -52.900          39.250

  22580028.136   120787946.631 7        44.000    22580034.886    93946184.672 6
      1990.074          41.500
                  22580028.386   120787962.370 7      2558.705          44.750
                                                                  22580034.946
  93946189.429 7      1990.066          42.500
  23113527.581   123685169.464 6        41.500    23113537.151    96199573.336 6
     -3484.628          38.750
                  23113528.221   123685178.211 7     -4480.321          42.000
                                                                  23113538.271
  96199592.086 6     -3484.722          39.750
  24287788.818   127633209.212 3        22.000    24287787.418    99454451.884 3
      2773.227          22.000
                  24287787.998   127633425.978 6      3559.088          40.500


  19291745.237   102944497.465 9        54.000    19291752.207    80067970.290 8
      -643.766          51.250
                  19291745.067   102944920.220 9      -827.708          55.000
                                                                  19291751.377
  80067970.045 8      -643.769          52.250
  21135788.836   112824304.343 8        48.750    21135796.866    87752243.182 7
     -1426.892          45.500
                  21135787.926   112824194.093 8     -1834.589          49.500
                                                                  21135798.486
  87752248.926 7     -1426.901          46.750
  24504754.635   128773369.253 4        26.500    24504759.965   100342886.617 4
      2551.200          26.500    24504760.205    96161925.990 6      2444.963
        37.750    24504754.435   128773364.978 7      3274.181          42.250
  24504759.915   100342889.364 7      2551.231          42.500

  20405224.458   107230279.813 8        48.750    20405226.808    83556083.051 8
       542.712          48.750
                  20405224.348   107230294.561 9       696.483          55.500


  25063390.005   131709113.783 2        17.000    25063389.375   102630501.949 2
     -2777.482          17.000
                  25063392.105   131709118.505 6     -3564.660          36.750


  24975801.572   131248722.234 1        10.000    24975804.892   102271730.333 1
     -1420.822          10.000
                  24975801.382   131248722.996 5     -1823.199          33.250
  24975806.512   102271736.092 5     -1420.879          33.000

  20154016.255   105910174.769 7        45.750    20154016.615    82527431.307 7
       621.417          45.750
                  20154017.035   105910190.512 8       797.458          52.750


  20893468.636   109795968.218 7        42.500    20893469.936    85555309.197 7
      -497.025          42.500
                  20893468.956   109795968.955 8      -637.836          53.500


  21121465.206   110994126.967 7        43.500    21121466.716    86488947.835 7
     -1604.258          43.500
                  21121466.076   110994138.706 8     -2058.816          53.250


  23764754.062   124884647.530 4        29.500    23764754.682    97312716.208 4
     -1381.755          29.500
                  23764753.542   124884635.311 7     -1773.195          46.000
  23764754.602    97312710.976 6     -1381.717          40.750

  20878951.523   111570844.919 7        47.500    20878959.063    86777344.093 6
     -1086.288          41.250
                  20878952.103   111570865.667 8     -1396.712          48.250
                                                                  20878960.733
  86777329.839 7     -1086.270          42.250
  21746661.158   114279555.780 6        39.750    21746664.758    89049021.647 6
     -2201.180          39.750    21746664.648    85338645.333 7     -2109.487
        45.250    21746661.408   114279552.530 8     -2824.871          50.500
  21746665.138    89049014.434 8     -2201.187          49.500

  21420662.519   112566408.264 7        42.250    21420662.559    87714099.233 7
      -406.062          42.250
                  21420662.349   112566408.014 8      -521.129          52.000
  21420662.569    87714106.034 8      -406.073          48.750

  20764467.130   111153887.132 8        48.000    20764473.820    86453041.437 7
      2070.532          47.000
                  20764466.490   111153891.885 8      2662.123          48.750
                                                                  20764473.980
  86453067.189 8      2070.544          48.250
  22378843.121   119627826.736 7        44.750    22378851.941    93043885.786 6
     -2801.067          36.500
                  22378844.041   119627829.478 7     -3601.408          46.250
                                                                  22378852.361
  93043895.520 6     -2801.013          38.250
 14  8 29 20  2 46.0000000  0 22G23G11R12G25R19R17G13R 2R18G 6G 9G14-0.000191763
                                G12G20G 4G32G17R11G 1G31R 3R 1
  22195183.314   116636543.654 6        37.750    22195182.994    90885635.678 6
      2068.849          37.750
                  22195183.854   116636516.397 8      2654.997          49.500


  24291206.378   127651230.292 3        21.250    24291212.398    99468502.937 3
     -3044.821          21.250
                  24291209.518   127651221.008 7     -3907.458          42.000


  21076606.828   112587502.855 7        43.500    21076616.308    87568067.685 7
      2332.069          43.750
                  21076606.008   112587502.592 7      2998.393          44.250
                                                                  21076616.018
  87568049.437 7      2332.061          45.000
  24236196.954   127362085.470 3        18.750    24236199.984    99243182.955 3
       -53.716          18.750    24236203.874    95108050.937 6       -51.424
        37.250    24236196.294   127362102.247 6       -68.632          36.500
  24236202.344    99243185.714 6       -53.651          39.250

  22579549.928   120785388.416 7        44.250    22579556.578    93944194.957 6
      1989.334          41.250
                  22579549.578   120785404.162 7      2557.747          44.500
                                                                  22579555.548
  93944199.713 7      1989.328          42.250
  23114365.117   123689649.994 6        41.750    23114374.457    96203058.205 6
     -3485.010          38.500
                  23114365.557   123689658.756 7     -4480.761          42.000
                                                                  23114376.847
  96203076.954 6     -3485.022          40.000
  24287112.203   127629650.449 3        22.000    24287109.463    99451678.755 3
      2772.916          22.000
                  24287110.443   127629867.127 6      3558.720          40.500


  19291900.475   102945325.519 9        54.000    19291907.145    80068614.330 8
      -644.323          51.250
                  19291900.185   102945748.269 9      -828.410          55.000
                                                                  19291906.845
  80068614.085 8      -644.324          52.500
  21136132.393   112826139.423 8        48.750    21136140.733    87753670.462 7
     -1427.721          45.250
                  21136133.233   112826029.170 8     -1835.641          49.250
                                                                  21136140.473
  87753676.209 7     -1427.716          46.500
  24504132.607   128770095.182 4        27.000    24504135.257   100340335.395 4
      2551.102          27.000    24504137.327    96159481.076 6      2444.805
        37.000    24504131.307   128770090.918 7      3273.885          42.250
  24504137.057   100340338.154 7      2551.098          42.500

  20405092.023   107229583.670 8        48.500    20405094.343    83555540.600 8
       542.184          48.500
                  20405092.263   107229598.417 9       695.789          55.500


  25064067.667   131712678.627 2        17.000    25064071.997   102633279.674 2
     -2777.734          17.000
                  25064068.667   131712683.347 5     -3565.031          35.750


  24976147.665   131250545.920 1         8.000    24976151.935   102273151.409 1
     -1421.450           8.000
                  24976149.825   131250546.632 5     -1824.105          33.000
  24976154.725   102273157.086 5     -1421.362          32.000

  20153864.586   105909377.700 7        45.500    20153864.976    82526810.214 7
       620.801          45.500
                  20153865.556   105909393.439 8       796.714          52.750


  20893590.137   109796606.500 7        42.750    20893591.627    85555806.553 7
      -497.752          42.750
                  20893590.807   109796607.232 8      -638.737          53.500


  21121856.926   110996186.018 7        43.750    21121858.716    86490552.294 7
     -1604.698          43.750
                  21121857.836   110996197.766 8     -2059.335          53.250


  23765090.740   124886421.110 4        28.750    23765092.640    97314098.175 4
     -1382.241          28.750
                  23765091.220   124886408.836 7     -1773.866          45.750
  23765092.160    97314092.939 6     -1382.229          40.500

  20879212.861   111572242.180 7        47.750    20879220.151    86778430.849 6
     -1087.214          41.250
                  20879212.431   111572262.930 8     -1397.834          48.500
                                                                  20879219.841
  86778416.596 6     -1087.248          41.750
  21747198.501   114282380.995 6        40.250    21747202.941    89051223.120 6
     -2201.757          40.250    21747202.161    85340755.076 7     -2110.040
        45.250    21747198.531   114282377.745 8     -2825.564          50.250
  21747203.261    89051215.906 8     -2201.756          49.500

  21420762.023   112566929.854 7        42.250    21420762.163    87714505.669 7
      -406.778          42.250
                  21420761.613   112566929.599 8      -522.045          52.000
  21420761.813    87714512.459 8      -406.792          48.750

  20763969.688   111151225.306 8        48.000    20763976.638    86450971.128 7
      2070.092          47.000
                  20763969.368   111151230.048 8      2661.571          48.750
                                                                  20763977.088
  86450996.880 8      2070.083          48.000
  22379516.647   119631428.394 7        45.000    22379525.927    93046687.079 6
     -2801.391          36.500
                  22379516.367   119631431.138 7     -3601.829          46.250
                                                                  22379523.447
  93046696.815 6     -2801.423          39.000
 14  8 29 20  2 47.0000000  0 22G23G11R12G25R19R17G13R 2R18G 6G 9G14-0.000191693
                                G12G20G 4G32G17R11G 1G31R 3R 1
  22194678.216   116633888.662 6        37.500    22194677.326    90883566.860 6
      2068.839          37.500
                  22194679.246   116633861.402 8      2654.943          49.500


  24291951.581   127655137.550 3        21.250    24291953.091    99471547.539 3
     -3044.608          21.250
                  24291953.671   127655128.301 6     -3907.300          41.750


  21076045.878   112584504.806 7        43.500    21076055.228    87565735.868 7
      2331.658          44.000
                  21076044.698   112584504.562 7      2997.833          44.500
                                                                  21076055.088
  87565717.621 7      2331.650          45.500
  24236207.411   127362154.327 3        19.500    24236215.241    99243236.580 3
       -53.835          19.500    24236216.981    95108102.322 6       -51.578
        37.250    24236210.301   127362171.070 5       -69.082          35.750
  24236215.421    99243239.354 6       -53.832          39.250

  22579071.788   120782830.918 7        44.500    22579078.288    93942205.796 6
      1988.976          41.000
                  22579071.328   120782846.667 7      2557.171          45.000
                                                                  22579076.468
  93942210.542 7      1988.992          42.500
  23115202.683   123694130.701 6        41.000    23115211.163    96206543.189 6
     -3484.866          38.750
                  23115199.633   123694139.438 7     -4480.629          42.000
                                                                  23115212.423
  96206561.943 6     -3484.894          40.000
  24286434.795   127626091.677 3        22.000    24286432.015    99448905.761 3
      2773.065          22.000
                  24286432.445   127626308.407 6      3558.776          40.250


  19292055.670   102946154.078 9        54.000    19292062.420    80069258.763 8
      -644.546          51.250
                  19292055.520   102946576.827 9      -828.724          55.000
                                                                  19292062.870
  80069258.519 8      -644.557          52.250
  21136476.623   112827975.383 8        49.000    21136484.643    87755098.431 7
     -1428.256          45.500
                  21136476.013   112827865.129 8     -1836.362          49.500
                                                                  21136483.873
  87755104.179 7     -1428.237          46.750
  24503509.871   128766821.405 4        26.500    24503513.811   100337784.403 4
      2550.991          26.500    24503514.501    96157036.388 6      2444.687
        37.250    24503510.011   128766817.175 7      3273.829          42.000
  24503514.821   100337787.161 7      2551.004          42.500

  20404959.721   107228888.044 8        48.750    20404961.951    83554998.556 8
       541.937          48.750
                  20404959.481   107228902.795 9       695.479          55.750


  25064745.556   131716243.448 2        16.750    25064750.946   102636057.537 2
     -2777.660          16.750
                  25064748.576   131716248.161 6     -3564.681          36.500


  24976495.479   131252370.140 1         8.000    24976497.179   102274572.833 1
     -1421.987           8.000
                  24976496.029   131252370.826 5     -1824.548          34.500
  24976500.889   102274578.546 5     -1421.872          32.500

  20153712.925   105908581.145 7        45.500    20153713.445    82526189.524 7
       620.559          45.500
                  20153713.235   105908596.884 8       796.386          53.000


  20893711.637   109797245.464 7        42.500    20893712.917    85556304.450 7
      -498.059          42.500
                  20893712.217   109797246.203 8      -639.224          53.500


  21122249.069   110998245.471 7        43.500    21122250.579    86492157.053 7
     -1604.831          43.500
                  21122249.719   110998257.218 8     -2059.538          53.250


  23765429.922   124888195.155 4        29.000    23765429.742    97315480.551 4
     -1382.534          29.000
                  23765429.982   124888182.895 7     -1774.245          45.750
  23765430.952    97315475.316 6     -1382.547          40.500

  20879474.547   111573640.345 7        47.500    20879482.427    86779518.315 6
     -1087.766          41.500
                  20879475.157   111573661.083 8     -1398.530          48.500
                                                                  20879481.947
  86779504.058 6     -1087.752          41.750
  21747736.325   114285206.654 6        39.500    21747740.525    89053424.924 6
     -2201.891          39.500    21747740.005    85342865.139 7     -2110.149
        45.250    21747736.745   114285203.397 8     -2825.777          50.250
  21747740.405    89053417.714 8     -2201.904          49.250

  21420861.242   112567452.117 7        42.250    21420861.472    87714912.632 7
      -407.177          42.250
                  21420861.342   112567451.867 8      -522.526          52.000
  21420861.172    87714919.425 8      -407.157          49.000

  20763472.616   111148563.772 8        48.000    20763478.936    86448901.044 7
      2070.094          47.250
                  20763473.206   111148568.509 8      2661.523          48.750
                                                                  20763478.166
  86448926.789 8      2070.088          48.000
  22380190.698   119635030.219 7        44.750    22380199.328    93049488.489 6
     -2801.385          36.750
                  22380191.278   119635032.972 7     -3601.894          46.250
                                                                  22380198.298
  93049498.236 6     -2801.445          37.500
 14  8 29 20  2 48.0000000  0 22G23G11R12G25R19R17G13R 2R18G 6G 9G14-0.000191622
                                G12G20G 4G32G17R11G 1G31R 3R 1
  22194173.048   116631233.902 6        38.000    22194171.988    90881498.222 6
      2068.548          38.000
                  22194173.838   116631206.651 8      2654.567          49.500


  24292695.453   127659044.874 3        21.250    24292697.273    99474592.205 3
     -3044.792          21.250
                  24292697.633   127659035.622 7     -3907.403          42.000


  21075484.421   112581507.332 7        43.500    21075493.621    87563404.504 7
      2331.156          44.000
                  21075484.671   112581507.085 7      2997.154          44.500
                                                                  21075494.191
  87563386.249 7      2331.174          45.250
  24236222.962   127362223.778 3        19.500    24236226.612    99243290.685 3
       -54.654          19.500    24236229.822    95108154.198 6       -52.236
        36.750    24236222.982   127362240.543 6       -70.054          36.750
  24236228.292    99243293.487 6       -54.561          39.750

  22578593.089   120780274.075 7        44.250    22578600.119    93940217.141 6
      1988.349          40.750
                  22578593.609   120780289.832 7      2556.403          45.000
                                                                  22578598.689
  93940221.891 7      1988.379          42.250
  23116039.580   123698611.599 6        41.500    23116049.400    96210028.330 6
     -3485.296          38.750
                  23116038.420   123698620.346 7     -4481.042          42.250
                                                                  23116049.440
  96210047.079 6     -3485.303          39.750
  24285755.058   127622533.040 3        22.250    24285757.198    99446132.797 3
      2772.892          22.250
                  24285756.578   127622749.779 6      3558.549          40.250


  19292211.162   102946983.098 9        54.000    19292217.782    80069903.560 8
      -645.065          51.000
                  19292210.902   102947405.849 9      -829.384          55.000
                                                                  19292218.182
  80069903.313 8      -645.069          52.250
  21136820.569   112829812.154 8        49.250    21136828.959    87756527.028 7
     -1429.002          45.500
                  21136820.319   112829701.902 8     -1837.321          49.500
                                                                  21136828.629
  87756532.775 7     -1428.999          46.500
  24502887.032   128763547.862 4        26.750    24502890.002   100335233.580 4
      2550.713          26.750    24502891.132    96154591.852 6      2444.400
        36.750    24502885.462   128763543.624 7      3273.314          42.250
  24502891.642   100335236.349 7      2550.667          42.500

  20404827.395   107228192.883 8        48.750    20404829.745    83554456.871 8
       541.446          48.750
                  20404827.315   107228207.631 9       694.838          55.750


  25065422.883   131719808.235 2        16.750    25065427.353   102638835.299 2
     -2777.773          16.750
                  25065426.373   131719812.992 6     -3564.891          36.750


  24976843.796   131254194.835 1         8.250    24976844.836   102275994.706 1
     -1422.181           8.250
                  24976840.826   131254195.563 5     -1825.103          33.250
  24976844.006   102276000.365 5     -1422.075          32.500

  20153561.514   105907785.051 7        45.750    20153561.954    82525569.190 7
       620.096          45.750
                  20153562.094   105907800.795 8       795.790          53.250


  20893833.437   109797885.072 7        42.750    20893834.957    85556802.839 7
      -498.666          42.750
                  20893833.867   109797885.808 8      -640.016          53.500


  21122640.932   111000305.231 7        43.250    21122642.232    86493762.063 7
     -1605.163          43.250
                  21122641.712   111000316.981 8     -2060.012          53.000


  23765765.640   124889969.644 4        28.750    23765767.560    97316863.288 4
     -1383.067          28.750
                  23765766.970   124889957.404 7     -1774.878          46.000
  23765768.380    97316858.041 6     -1382.985          40.250

  20879736.239   111575039.342 7        47.750    20879744.519    86780606.432 6
     -1088.555          41.250
                  20879737.119   111575060.083 8     -1399.541          48.500
                                                                  20879743.989
  86780592.170 7     -1088.530          42.250
  21748273.900   114288032.726 6        39.750    21748278.480    89055627.062 6
     -2202.353          39.750    21748277.560    85344975.520 7     -2110.613
        45.500    21748274.420   114288029.472 8     -2826.395          50.000
  21748278.060    89055619.851 8     -2202.380          49.250

  21420960.909   112567975.021 7        42.250    21420960.919    87715320.085 7
      -407.766          42.250
                  21420960.849   112567974.766 8      -523.339          52.250
  21420961.189    87715326.883 8      -407.758          49.000

  20762975.256   111145902.498 8        48.000    20762982.756    86446831.164 7
      2069.719          47.000
                  20762976.246   111145907.248 8      2661.017          49.000
                                                                  20762982.196
  86446856.914 8      2069.708          48.250
  22380864.444   119638632.168 7        44.500    22380873.074    93052290.012 6
     -2801.621          36.500
                  22380865.484   119638634.914 7     -3602.120          46.250
                                                                  22380872.834
  93052299.739 6     -2801.657          38.500
 14  8 29 20  2 49.0000000  0 22G23G11R12G25R19R17G13R 2R18G 6G 9G14-0.000191552
                                G12G20G 4G32G17R11G 1G31R 3R 1
  22193667.641   116628579.161 6        37.250    22193666.431    90879429.599 6
      2068.518          37.250
                  22193668.721   116628551.893 8      2654.543          49.500


  24293439.134   127662951.996 3        21.250    24293440.534    99477636.708 3
     -3044.618          21.250
                  24293439.584   127662942.726 7     -3907.181          42.250


  21074923.216   112578510.275 7        43.500    21074932.586    87561073.459 7
      2330.760          43.750
                  21074923.546   112578510.024 7      2996.718          44.250
                                                                  21074932.566
  87561055.214 7      2330.757          45.250
  24236236.403   127362293.608 3        19.500    24236237.903    99243345.090 3
       -54.600          19.500    24236243.453    95108206.308 6       -52.347
        37.000    24236237.063   127362310.349 6       -70.274          37.250
  24236241.453    99243347.878 6       -54.611          39.250

  22578115.936   120777717.651 7        44.250    22578122.416    93938228.812 6
      1988.093          40.750
                  22578117.086   120777733.388 7      2556.048          44.750
                                                                  22578120.306
  93938233.553 7      1988.117          42.000
  23116877.009   123703092.388 6        41.250    23116886.299    96213513.390 6
     -3485.199          38.750
                  23116873.989   123703101.159 7     -4481.077          42.000
                                                                  23116887.989
  96213532.134 6     -3485.201          40.500
  24285080.424   127618974.226 3        22.250    24285078.614    99443359.683 3
      2772.948          22.250
                  24285079.454   127619190.967 6      3558.728          40.500


  19292366.525   102947812.393 9        54.000    19292373.375    80070548.565 8
      -645.289          51.250
                  19292366.495   102948235.146 9      -829.668          55.000
                                                                  19292373.235
  80070548.319 8      -645.296          52.250
  21137164.830   112831649.463 8        49.250    21137172.900    87757956.049 7
     -1429.396          45.500
                  21137164.600   112831539.213 8     -1837.780          49.250
                                                                  21137172.930
  87757961.799 7     -1429.378          46.500
  24502265.325   128760274.268 4        26.750    24502266.335   100332682.729 4
      2550.790          26.750    24502268.545    96152147.280 6      2444.417
        37.500    24502262.185   128760270.019 6      3273.395          41.750
  24502267.955   100332685.494 7      2550.700          42.500

  20404695.147   107227497.962 8        48.750    20404697.497    83553915.377 8
       541.222          48.750
                  20404695.077   107227512.710 9       694.542          55.500


  25066101.640   131723372.835 2        16.750    25066104.030   102641612.919 2
     -2777.886          16.750
                  25066104.660   131723377.569 6     -3564.597          36.250


  24977189.471   131256019.807 1         8.250    24977196.031   102277416.722 1
     -1422.161           8.250
                  24977191.931   131256020.552 5     -1825.187          33.250
  24977194.081   102277422.425 5     -1422.220          33.000

  20153409.985   105906989.214 7        45.750    20153410.455    82524949.054 7
       619.877          45.750
                  20153410.555   105907004.952 8       795.475          53.250


  20893954.919   109798525.097 7        42.500    20893956.669    85557301.568 7
      -499.031          42.500
                  20893955.669   109798525.838 8      -640.449          53.500


  21123032.576   111002365.095 7        43.000    21123034.316    86495367.154 7
     -1605.332          43.000
                  21123033.886   111002376.845 8     -2060.182          53.000


  23766103.647   124891744.391 4        29.250    23766103.757    97318246.194 4
     -1383.243          29.250
                  23766104.347   124891732.144 7     -1775.158          45.750
  23766105.707    97318240.976 6     -1383.236          40.250

  20879998.137   111576438.968 7        47.750    20880005.787    86781695.017 6
     -1088.940          41.000
                  20879998.097   111576459.706 8     -1400.125          48.500
                                                                  20880005.837
  86781680.764 7     -1088.970          42.000
  21748811.622   114290858.957 6        39.500    21748816.062    89057829.322 6
     -2202.482          39.500    21748815.462    85347086.016 7     -2110.701
        45.250    21748812.562   114290855.711 8     -2826.545          50.250
  21748815.642    89057822.104 8     -2202.457          49.250

  21421060.432   112568498.317 7        42.750    21421060.352    87715727.851 7
      -408.034          42.750
                  21421060.782   112568498.066 8      -523.692          52.250
  21421060.792    87715734.655 8      -408.037          49.000

  20762478.108   111143241.263 8        48.000    20762484.748    86444761.315 7
      2069.659          46.750
                  20762478.368   111143246.014 8      2660.980          48.750
                                                                  20762485.238
  86444787.074 8      2069.652          48.250
  22381538.738   119642234.029 7        45.000    22381546.848    93055091.462 6
     -2801.578          36.500
                  22381538.998   119642236.775 7     -3602.058          46.500
                                                                  22381545.718
  93055101.198 6     -2801.533          37.750
 14  8 29 20  2 50.0000000  0 22G23G11R12G25R19R17G13R 2R18G 6G 9G14-0.000191482
                                G12G20G 4G32G17R11G 1G31R 3R 1
  22193162.899   116625924.862 6        37.500    22193162.119    90877361.313 6
      2068.283          37.500
                  22193163.559   116625897.591 8      2654.303          49.250


  24294182.088   127666859.268 3        21.250    24294185.368    99480681.360 3
     -3044.506          21.250
                  24294182.038   127666850.044 7     -3907.155          42.500


  21074361.982   112575513.968 7        43.750    21074371.992    87558742.999 7
      2330.374          44.000
                  21074362.802   112575513.699 7      2996.169          44.250
                                                                  21074371.332
  87558724.746 7      2330.354          45.250
  24236247.874   127362364.255 3        19.500    24236251.884    99243400.173 3
       -55.189          19.500    24236256.224    95108259.064 6       -52.790
        37.000    24236250.704   127362380.996 6       -70.589          37.250
  24236255.604    99243402.894 6       -55.082          39.750

  22577637.789   120775162.087 7        44.500    22577644.019    93936241.154 6
      1987.501          40.500
                  22577637.169   120775177.839 7      2555.337          45.000
                                                                  22577644.659
  93936245.899 7      1987.490          42.000
  23117714.748   123707573.512 6        41.250    23117723.488    96216998.704 6
     -3485.278          39.000
                  23117715.818   123707582.285 7     -4481.135          42.000
                                                                  23117724.248
  96217017.441 6     -3485.258          40.250
  24284401.935   127615415.656 3        22.250    24284400.685    99440586.763 3
      2772.977          22.250
                  24284404.535   127615632.404 6      3558.566          40.500


  19292521.725   102948642.396 9        54.000    19292528.965    80071194.122 8
      -645.641          51.000
                  19292521.505   102949065.152 9      -830.141          54.750
                                                                  19292528.265
  80071193.876 8      -645.642          52.250
  21137509.263   112833487.743 8        49.000    21137517.303    87759385.823 7
     -1430.047          45.500
                  21137509.623   112833377.492 8     -1838.601          49.500
                                                                  21137516.543
  87759391.579 7     -1430.044          46.750
  24501640.757   128757001.070 4        26.250    24501642.617   100330132.194 4
      2550.617          26.250    24501645.997    96149703.028 6      2444.243
        37.750    24501639.417   128756996.819 6      3273.189          41.750
  24501645.597   100330134.954 7      2550.556          42.500

  20404562.932   107226803.687 8        48.750    20404565.322    83553374.380 8
       540.936          48.750
                  20404563.012   107226818.436 9       694.206          55.500


  25066779.697   131726937.555 2        16.000    25066783.837   102644390.654 2
     -2777.588          16.000
                  25066784.367   131726942.354 5     -3564.638          35.750


  24977539.841   131257845.606 1         8.250    24977543.901   102278839.413 1
     -1422.805           8.250
                  24977540.521   131257846.302 5     -1825.947          33.250
  24977540.711   102278845.120 5     -1422.879          32.750

  20153258.691   105906194.030 7        45.500    20153259.201    82524329.433 7
       619.528          45.500
                  20153259.331   105906209.771 8       795.062          53.250


  20894077.168   109799165.964 7        42.500    20894078.418    85557800.948 7
      -499.546          42.500
                  20894077.628   109799166.705 8      -641.050          53.500


  21123424.817   111004425.468 7        43.000    21123426.547    86496972.638 7
     -1605.536          43.000
                  21123425.487   111004437.214 8     -2060.473          53.250


  23766442.052   124893519.796 4        29.250    23766444.032    97319629.623 4
     -1383.548          29.250
                  23766442.282   124893507.539 7     -1775.539          46.250
  23766444.172    97319624.396 6     -1383.493          40.750

  20880260.166   111577839.653 7        47.500    20880268.566    86782784.442 6
     -1089.673          41.250
                  20880259.936   111577860.399 8     -1400.987          48.250
                                                                  20880268.916
  86782770.196 7     -1089.679          42.000
  21749350.036   114293685.795 6        39.250    21749353.836    89060032.058 6
     -2202.783          39.250    21749353.496    85349196.971 7     -2110.999
        45.250    21749350.156   114293682.546 8     -2826.894          50.000
  21749353.666    89060024.840 8     -2202.761          49.250

  21421160.180   112569022.456 7        42.250    21421160.420    87716136.269 7
      -408.581          42.250
                  21421160.340   112569022.208 8      -524.335          52.250
  21421160.740    87716143.073 8      -408.602          49.000

  20761981.548   111140580.508 8        48.000    20761988.128    86442691.841 7
      2069.462          47.000
                  20761980.578   111140585.250 8      2660.742          48.500
                                                                  20761988.468
  86442717.596 8      2069.475          48.250
  22382212.445   119645836.226 7        45.000    22382221.605    93057893.152 6
     -2801.592          36.500
                  22382213.195   119645838.985 7     -3602.111          46.500
                                                                  22382225.395
  93057902.907 6     -2801.676          38.000
 14  8 29 20  2 51.0000000  0 22G23G11R12G25R19R17G13R 2R18G 6G 9G14-0.000191411
                                G12G20G 4G32G17R11G 1G31R 3R 1
  22192657.637   116623271.410 6        37.250    22192657.047    90875293.696 6
      2067.562          37.250
                  22192658.477   116623244.153 8      2653.407          49.000


  24294924.381   127670767.297 3        21.250    24294928.271    99483726.576 3
     -3045.178          21.250
                  24294926.171   127670758.048 7     -3908.012          42.000


  21073802.001   112572518.860 7        43.500    21073811.291    87556413.472 7
      2329.273          43.750
                  21073801.321   112572518.586 7      2994.764          44.000
                                                                  21073810.661
  87556395.229 7      2329.282          45.000
  24236266.012   127362436.141 3        19.500    24236265.652    99243456.155 3
       -56.196          19.500    24236269.352    95108312.748 6       -53.858
        37.000    24236265.082   127362452.872 6       -72.240          37.250
  24236266.842    99243458.922 6       -56.250          39.250

  22577160.276   120772607.829 7        44.250    22577166.976    93934254.503 6
      1986.319          41.000
                  22577161.156   120772623.585 7      2553.848          45.000
                                                                  22577166.506
  93934259.257 6      1986.329          41.750
  23118552.017   123712055.423 6        41.500    23118560.997    96220484.639 6
     -3486.063          38.750
                  23118552.677   123712064.173 6     -4482.037          41.750
                                                                  23118561.557
  96220503.375 6     -3486.000          40.250
  24283725.870   127611857.849 3        21.250    24283723.600    99437814.417 3
      2772.358          21.250
                  24283725.930   127612074.571 6      3557.693          41.000


  19292677.704   102949473.527 8        53.750    19292684.634    80071840.560 8
      -646.623          51.000
                  19292677.194   102949896.286 9      -831.357          54.750
                                                                  19292684.924
  80071840.317 8      -646.621          52.250
  21137853.897   112835327.448 8        49.250    21137861.657    87760816.703 7
     -1431.230          45.500
                  21137853.467   112835217.200 8     -1840.132          49.500
                                                                  21137861.367
  87760822.461 7     -1431.229          46.500
  24501020.583   128753728.749 4        26.000    24501020.763   100327582.288 4
      2549.948          26.000    24501022.653    96147259.391 6      2443.582
        37.500    24501015.933   128753724.482 7      3272.165          42.000
  24501023.013   100327585.075 7      2549.845          42.750

  20404431.089   107226110.533 8        48.750    20404433.409    83552834.261 8
       539.913          48.750
                  20404431.379   107226125.283 9       692.875          55.500


  25067455.948   131730502.889 2        16.000    25067462.898   102647168.820 2
     -2778.131          16.000
                  25067462.828   131730507.702 6     -3565.433          36.250


  24977887.660   131259672.455 1         8.250    24977890.180   102280262.974 1
     -1423.852           8.250
                  24977888.990   131259673.192 5     -1827.052          33.250
  24977885.710   102280268.682 5     -1423.911          31.500

  20153107.627   105905399.963 7        45.750    20153107.887    82523710.675 7
       618.581          45.750
                  20153107.867   105905415.705 8       793.863          53.250


  20894199.066   109799808.115 7        42.750    20894200.606    85558301.317 7
      -500.584          42.750
                  20894199.796   109799808.856 8      -642.442          53.750


  21123817.010   111006486.806 7        43.250    21123818.740    86498578.869 7
     -1606.342          43.250
                  21123817.450   111006498.548 8     -2061.472          53.000


  23766780.207   124895296.336 4        29.000    23766781.477    97321013.921 4
     -1384.451          29.000
                  23766780.307   124895284.069 7     -1776.734          46.250
  23766782.177    97321008.697 6     -1384.516          40.750

  20880522.699   111579241.831 7        47.750    20880530.879    86783875.022 6
     -1090.931          40.750
                  20880524.029   111579262.572 8     -1402.631          48.250
                                                                  20880532.209
  86783860.779 7     -1090.931          42.250
  21749887.933   114296513.696 6        39.750    21749892.263    89062235.606 6
     -2203.676          39.750    21749891.373    85351308.709 7     -2111.877
        45.250    21749888.173   114296510.453 8     -2828.106          50.000
  21749891.763    89062228.400 8     -2203.684          49.250

  21421260.079   112569547.871 7        42.250    21421260.419    87716545.690 7
      -409.706          42.250
                  21421259.859   112569547.614 8      -525.752          52.250
  21421260.379    87716552.482 8      -409.674          49.000

  20761484.514   111137920.671 8        48.250    20761490.994    86440623.076 7
      2068.702          47.250
                  20761483.714   111137925.418 8      2659.748          49.000
                                                                  20761491.534
  86440648.835 8      2068.708          48.500
  22382885.899   119649439.218 7        44.750    22382895.079    93060695.497 6
     -2802.364          36.000
                  22382887.039   119649441.977 7     -3603.065          46.500
                                                                  22382893.369
  93060705.225 6     -2802.361          37.750
 14  8 29 20  2 52.0000000  0 22G23G11R12G25R19R17G13R 2R18G 6G 9G14-0.000191340
                                G12G20G 4G32G17R11G 1G31R 3R 1
  22192153.175   116620618.050 6        37.250    22192152.695    90873226.127 6
      2067.568          37.250
                  22192153.795   116620590.787 8      2653.365          48.750


  24295668.397   127674675.097 3        20.500    24295670.197    99486771.629 3
     -3044.954          20.500
                  24295670.747   127674665.876 7     -3907.529          42.000


  21073240.874   112569524.159 7        43.500    21073250.794    87554084.258 7
      2329.143          43.750
                  21073240.394   112569523.894 7      2994.674          44.250
                                                                  21073250.394
  87554066.022 7      2329.145          45.250
  24236278.790   127362508.423 3        19.500    24236280.100    99243512.506 3
       -56.385          19.500    24236283.770    95108366.734 6       -53.953
        36.000    24236277.580   127362525.167 6       -72.355          38.000
  24236281.520    99243515.253 6       -56.301          39.250

  22576683.315   120770054.021 7        43.750    22576689.225    93932268.213 6
      1986.183          40.500
                  22576683.625   120770069.785 7      2553.653          45.000
                                                                  22576688.835
  93932272.960 6      1986.155          41.750
  23119390.295   123716537.287 6        41.500    23119399.105    96223970.529 6
     -3485.758          38.750
                  23119389.515   123716546.041 7     -4481.745          42.000
                                                                  23119398.045
  96223989.270 6     -3485.794          40.500
  24283048.790   127608299.829 3        21.250    24283046.630    99435041.966 3
      2772.583          21.250
                  24283048.870   127608516.608 6      3558.049          41.000


  19292833.683   102950304.903 9        54.000    19292840.533    80072487.184 8
      -646.669          51.000
                  19292833.433   102950727.658 9      -831.404          54.750
                                                                  19292840.643
  80072486.934 8      -646.667          52.500
  21138198.647   112837167.772 8        49.000    21138206.457    87762248.062 7
     -1431.562          45.500
                  21138197.457   112837057.529 8     -1840.565          49.500
                                                                  21138205.847
  87762253.820 7     -1431.558          46.500
  24500398.106   128750456.392 4        27.250    24500398.186   100325032.428 4
      2550.035          27.250    24500400.256    96144815.753 6      2443.812
        37.250    24500393.776   128750452.135 6      3272.513          41.750
  24500399.986   100325035.202 7      2550.017          42.500

  20404299.294   107225417.634 8        49.000    20404301.574    83552294.341 8
       539.896          49.000
                  20404299.324   107225432.387 9       692.875          55.500


  25068133.947   131734068.061 2        16.000    25068141.387   102649946.872 2
     -2777.978          16.000
                  25068139.027   131734072.877 5     -3565.229          35.500


  24978233.981   131261499.615 1         6.250    24978238.871   102281686.744 1
     -1423.816           6.250
                  24978237.181   131261500.340 5     -1827.166          32.500
  24978235.771   102281692.427 5     -1423.679          32.250

  20152956.652   105904606.180 7        46.250    20152957.032    82523092.138 7
       618.499          46.250
                  20152957.182   105904621.920 8       793.745          53.250


  20894321.340   109800450.719 7        43.000    20894323.100    85558802.049 7
      -500.879          43.000
                  20894322.220   109800451.452 8      -642.768          53.500


  21124209.294   111008548.285 7        43.250    21124210.984    86500185.221 7
     -1606.349          43.250
                  21124210.164   111008560.032 8     -2061.440          53.000


  23767118.774   124897073.091 4        29.500    23767119.804    97322398.442 4
     -1384.608          29.500
                  23767117.784   124897060.861 7     -1776.881          46.000
  23767119.764    97322393.210 6     -1384.584          40.750

  20880785.282   111580644.677 7        47.750    20880793.412    86784966.130 6
     -1091.306          41.250
                  20880785.172   111580665.420 8     -1403.046          48.500
                                                                  20880793.302
  86784951.882 7     -1091.306          42.250
  21750426.062   114299341.805 6        39.250    21750430.182    89064439.335 6
     -2203.780          39.250    21750429.692    85353420.609 7     -2111.954
        45.250    21750426.372   114299338.557 8     -2828.182          49.750
  21750430.302    89064432.125 8     -2203.769          49.250

  21421360.183   112570073.724 7        42.750    21421360.393    87716955.444 7
      -409.876          42.750
                  21421360.593   112570073.476 8      -525.984          52.250
  21421360.963    87716962.239 8      -409.875          49.000

  20760987.859   111135260.900 8        48.500    20760994.119    86438554.366 7
      2068.770          47.250
                  20760987.069   111135265.639 8      2659.855          48.750
                                                                  20760994.499
  86438580.121 8      2068.787          48.500
  22383560.312   119653042.183 7        44.750    22383569.292    93063497.801 6
     -2802.267          36.000
                  22383561.272   119653044.936 7     -3602.876          46.250
                                                                  22383566.692
  93063507.527 6     -2802.266          38.250
 14  8 29 20  2 53.0000000  0 22G23G11R12G25R19R17G13R 2R18G 6G 9G14-0.000191270
                                G12G20G 4G32G17R11G 1G31R 3R 1
  22191648.162   116617964.751 6        37.000    22191647.242    90871158.637 6
      2067.479          37.000
                  22191649.112   116617937.505 8      2653.217          48.750


  24296413.902   127678582.879 3        20.500    24296415.202    99489816.605 3
     -3044.980          20.500
                  24296413.762   127678573.620 7     -3907.681          42.000


  21072680.408   112566529.971 7        43.750    21072690.408    87551755.455 7
      2328.651          43.750
                  21072680.628   112566529.721 7      2993.921          44.250
                                                                  21072689.408
  87551737.217 7      2328.615          45.000
  24236290.754   127362581.285 3        19.500    24236293.144    99243569.242 3
       -56.914          19.500    24236297.674    95108421.121 6       -54.611
        37.000    24236291.724   127362597.981 6       -73.044          38.000
  24236296.364    99243572.017 6       -57.010          39.000

  22576205.804   120767500.740 7        44.000    22576212.624    93930282.326 6
      1985.643          40.500
                  22576205.444   120767516.488 7      2552.976          45.000
                                                                  22576211.624
  93930287.079 7      1985.631          42.000
  23120227.738   123721019.182 6        41.500    23120236.388    96227456.439 6
     -3485.831          38.500
                  23120225.978   123721027.921 7     -4481.778          42.250
                                                                  23120235.668
  96227475.191 6     -3485.853          40.500
  24282371.266   127604741.795 3        21.000    24282370.876    99432269.518 3
      2772.448          21.000
                  24282371.816   127604958.549 6      3558.135          41.250


  19292989.348   102951136.575 8        53.750    19292996.328    80073134.043 8
      -646.975          51.000
                  19292989.508   102951559.329 9      -831.844          54.750
                                                                  19292995.888
  80073133.794 8      -646.983          52.500
  21138543.526   112839008.762 8        49.250    21138551.296    87763679.947 7
     -1432.162          45.250
                  21138543.586   112838898.514 8     -1841.333          49.500
                                                                  21138550.816
  87763685.701 7     -1432.179          46.750
  24499773.980   128747184.159 4        26.000    24499776.680   100322482.599 4
      2549.995          26.000    24499777.340    96142372.207 6      2443.522
        37.000    24499771.740   128747179.899 6      3272.258          41.750
  24499777.950   100322485.394 7      2549.811          42.250

  20404167.552   107224725.084 8        48.750    20404169.872    83551754.689 8
       539.551          48.750
                  20404167.622   107224739.836 9       692.406          55.500


  25068815.253   131737633.125 2        16.000    25068818.813   102652724.848 2
     -2777.872          16.000
                  25068818.183   131737637.880 6     -3564.966          36.250


  24978580.383   131263327.208 1         6.250    24978587.383   102283110.797 1
     -1424.099           6.250
                  24978584.263   131263327.936 5     -1827.689          33.000
  24978581.523   102283116.522 5     -1424.114          32.250

  20152805.616   105903812.725 7        46.000    20152805.876    82522473.860 7
       618.189          46.000
                  20152806.216   105903828.469 8       793.313          53.250


  20894443.875   109801093.815 7        42.750    20894445.355    85559303.165 7
      -501.320          42.750
                  20894444.205   109801094.558 8      -643.351          53.750


  21124601.766   111010609.956 7        43.250    21124603.376    86501791.717 7
     -1606.618          43.250
                  21124602.586   111010621.703 8     -2061.776          53.000


  23767457.200   124898850.216 4        29.250    23767458.140    97323783.227 4
     -1384.984          29.250
                  23767456.690   124898837.977 7     -1777.301          46.000
  23767456.870    97323777.994 6     -1384.949          40.250

  20881047.796   111582048.231 7        47.500    20881055.846    86786057.787 6
     -1091.977          41.000
                  20881048.036   111582068.977 8     -1403.898          48.500
                                                                  20881054.216
  86786043.540 7     -1091.964          42.500
  21750964.626   114302170.172 6        40.000    21750968.566    89066643.262 6
     -2204.037          40.000    21750967.876    85355532.700 7     -2112.171
        45.250    21750964.656   114302166.930 8     -2828.452          50.000
  21750968.726    89066636.044 8     -2204.019          49.250

  21421460.520   112570600.081 7        42.750    21421460.560    87717365.588 7
      -410.306          42.750
                  21421460.480   112570599.835 8      -526.554          52.500
  21421460.610    87717372.387 8      -410.294          49.000

  20760490.575   111132601.235 8        48.250    20760497.335    86436485.743 7
      2068.621          47.250
                  20760489.635   111132605.985 8      2659.677          49.000
                                                                  20760497.335
  86436511.498 8      2068.643          48.500
  22384233.894   119656645.123 7        45.000    22384243.684    93066300.080 6
     -2802.302          36.000
                  22384234.204   119656647.885 7     -3602.949          46.250
                                                                  22384244.644
  93066309.824 6     -2802.294          38.000
 14  8 29 20  2 54.0000000  0 22G23G11R12G25R19R17G13R 2R18G 6G 9G14-0.000191199
                                G12G20G 4G32G17R11G 1G31R 3R 1
  22191143.125   116615311.821 6        37.250    22191142.375    90869091.415 6
      2067.000          37.250
                  22191143.995   116615284.565 8      2652.720          48.750


  24297155.672   127682490.705 3        20.500    24297159.092    99492861.706 3
     -3045.151          20.500
                  24297157.472   127682481.459 7     -3907.947          42.250


  21072120.326   112563536.517 7        43.500    21072129.656    87549427.210 7
      2327.959          43.750
                  21072118.946   112563536.260 7      2993.041          44.250
                                                                  21072129.266
  87549408.964 7      2327.955          44.750
  24236303.792   127362654.741 3        20.000    24236307.082    99243626.521 3
       -57.685          20.000    24236311.622    95108476.036 6       -55.337
        36.500    24236306.372   127362671.524 6       -74.148          38.500
  24236310.712    99243629.323 6       -57.734          39.250

  22575728.575   120764948.237 7        44.000    22575735.205    93928297.045 6
      1984.870          41.000
                  22575727.455   120764963.972 7      2551.975          45.000
                                                                  22575735.735
  93928301.799 6      1984.849          41.750
  23121065.073   123725501.308 6        41.250    23121073.473    96230942.544 6
     -3486.189          39.000
                  23121064.503   123725510.065 7     -4482.263          42.500
                                                                  23121073.853
  96230961.299 6     -3486.181          40.000
  24281695.072   127601183.920 3        21.000    24281692.302    99429497.124 3
      2772.393          21.000
                  24281695.202   127601400.685 6      3557.747          41.250


  19293145.288   102951968.875 9        54.000    19293152.278    80073781.387 8
      -647.645          51.000
                  19293145.448   102952391.627 9      -832.647          54.750
                                                                  19293151.618
  80073781.141 8      -647.652          52.500
  21138888.502   112840850.639 8        49.000    21138896.502    87765112.514 7
     -1432.978          45.250
                  21138888.482   112840740.389 8     -1842.364          49.750
                                                                  21138896.782
  87765118.268 7     -1432.972          46.750
  24499152.271   128743912.225 4        26.000    24499153.851   100319933.083 4
      2549.279          26.000    24499155.471    96139928.857 6      2443.209
        37.000    24499149.071   128743907.928 6      3271.692          41.500
  24499155.191   100319935.823 7      2549.385          42.250

  20404035.913   107224033.101 8        48.750    20404038.163    83551215.483 8
       538.940          48.750
                  20404036.193   107224047.849 9       691.668          55.500


  25069495.853   131741198.208 2        15.750    25069494.093   102655502.833 2
     -2777.913          15.750
                  25069499.153   131741202.955 6     -3565.076          36.250


  24978927.595   131265155.314 1         6.250    24978935.605   102284535.262 1
     -1424.151           6.250
                  24978927.495   131265156.042 5     -1828.018          32.750
  24978929.315   102284541.030 5     -1424.321          32.250

  20152654.688   105903019.859 7        45.750    20152655.188    82521856.037 7
       617.547          45.750
                  20152655.738   105903035.594 8       792.537          53.250


  20894566.343   109801737.678 7        42.750    20894568.073    85559804.874 7
      -502.066          42.750
                  20894567.003   109801738.417 9      -644.301          54.000


  21124994.043   111012672.045 7        43.500    21124995.493    86503398.533 7
     -1607.047          43.500
                  21124994.873   111012683.792 8     -2062.348          53.000


  23767794.933   124900627.948 4        29.250    23767797.803    97325168.462 4
     -1385.608          29.250
                  23767794.853   124900615.686 7     -1778.060          46.000
  23767796.343    97325163.210 6     -1385.560          40.000

  20881310.572   111583452.760 7        47.500    20881319.222    86787150.185 6
     -1092.923          41.500
                  20881310.792   111583473.494 8     -1405.120          48.250
                                                                  20881320.712
  86787135.941 7     -1092.925          42.250
  21751502.344   114304999.066 6        40.000    21751506.864    89068847.588 6
     -2204.567          40.000    21751506.224    85357645.182 7     -2112.722
        45.250    21751502.684   114304995.818 8     -2829.195          49.750
  21751506.664    89068840.368 8     -2204.580          49.500

  21421560.810   112571127.190 7        42.500    21421560.570    87717776.328 7
      -411.100          42.500
                  21421560.740   112571126.940 8      -527.541          52.500
  21421561.150    87717783.119 8      -411.101          49.000

  20759994.192   111129941.963 8        48.250    20760000.762    86434417.418 7
      2068.175          47.250
                  20759993.652   111129946.715 8      2659.050          49.000
                                                                  20760001.202
  86434443.174 8      2068.174          48.750
  22384908.087   119660248.317 7        44.750    22384918.127    93069102.557 5
     -2802.618          35.250
                  22384908.257   119660251.076 7     -3603.387          46.250
                                                                  22384917.197
  93069112.309 6     -2802.605          37.750
 14  8 29 20  2 55.0000000  0 22G23G11R12G25R19R17G13R 2R18G 6G 9G14-0.000191129
                                G12G20G 4G32G17R11G 1G31R 3R 1
  22190638.873   116612659.128 6        37.000    22190637.653    90867024.390 6
      2066.948          37.000
                  22190639.333   116612631.876 8      2652.573          49.000


  24297900.864   127686398.665 3        20.750    24297904.094    99495906.839 3
     -3045.159          20.750
                  24297902.414   127686389.380 7     -3907.869          42.250


  21071559.664   112560543.679 7        43.750    21071569.344    87547099.452 7
      2327.558          43.500
                  21071560.594   112560543.422 7      2992.544          44.500
                                                                  21071569.014
  87547081.198 7      2327.573          44.500
  24236318.299   127362728.895 3        20.000    24236321.329    99243684.267 3
       -57.880          20.000    24236325.859    95108531.415 6       -55.629
        36.000    24236320.049   127362745.705 6       -74.293          38.500
  24236324.469    99243687.089 6       -58.036          39.000

  22575251.411   120762396.422 7        44.000    22575258.851    93926312.313 6
      1984.419          39.750
                  22575249.811   120762412.168 7      2551.406          44.750
                                                                  22575259.211
  93926317.061 6      1984.424          41.750
  23121902.414   123729983.585 6        41.000    23121910.654    96234428.755 6
     -3486.206          38.250
                  23121902.864   123729992.345 7     -4482.406          42.250
                                                                  23121909.284
  96234447.509 6     -3486.220          40.250
  24281018.416   127597626.179 3        21.000    24281015.856    99426724.848 3
      2772.430          21.000
                  24281017.096   127597842.904 6      3557.900          41.750


  19293301.404   102952801.701 9        54.000    19293308.354    80074429.139 8
      -647.961          51.000
                  19293301.304   102953224.451 9      -833.068          54.750
                                                                  19293308.044
  80074428.891 8      -647.953          52.250
  21139233.668   112842693.310 8        49.000    21139241.598    87766545.704 7
     -1433.498          45.250
                  21139232.758   112842583.065 8     -1843.009          49.500
                                                                  21139240.988
  87766551.456 7     -1433.493          46.750
  24498529.145   128740640.429 4        26.000    24498533.175   100317383.657 4
      2549.499          26.000    24498532.345    96137485.688 6      2443.188
        37.250    24498526.285   128740636.191 6      3271.729          41.750
  24498532.145   100317386.434 7      2549.387          42.500

  20403904.294   107223341.606 8        48.750    20403906.434    83550676.654 8
       538.653          48.750
                  20403904.614   107223356.353 9       691.280          55.500


  25070173.265   131744763.367 2        15.750    25070174.845   102658280.794 2
     -2778.180          15.750
                  25070178.225   131744768.081 5     -3565.198          35.750


  24979274.508   131266984.242 1         6.250    24979283.818   102285960.389 1
     -1425.344           6.250
                  24979275.488   131266984.884 5     -1829.192          32.000
  24979281.578   102285966.092 5     -1425.167          32.000

  20152504.010   105902227.471 7        45.750    20152504.230    82521238.594 7
       617.296          45.750
                  20152504.340   105902243.216 8       792.179          53.250


  20894689.204   109802382.205 7        42.500    20894690.754    85560307.103 7
      -502.488          42.500
                  20894689.034   109802382.946 9      -644.821          54.000


  21125386.527   111014734.480 7        43.250    21125388.107    86505005.633 7
     -1607.226          43.250
                  21125387.407   111014746.230 8     -2062.569          53.000


  23768132.472   124902406.104 4        28.500    23768134.262    97326554.052 4
     -1385.881          28.500
                  23768133.412   124902393.878 7     -1778.433          46.000
  23768134.172    97326548.810 6     -1385.786          40.750

  20881573.494   111584858.137 7        47.750    20881581.924    86788243.260 6
     -1093.403          41.250
                  20881572.814   111584878.882 8     -1405.814          48.250
                                                                  20881581.404
  86788229.007 7     -1093.397          42.750
  21752041.047   114307828.380 6        39.750    21752045.547    89071052.244 6
     -2204.790          39.750    21752044.557    85359757.978 7     -2112.932
        45.250    21752041.237   114307825.127 8     -2829.463          50.000
  21752045.077    89071045.030 8     -2204.801          49.250

  21421661.212   112571654.947 7        42.750    21421661.062    87718187.568 7
      -411.470          42.750
                  21421661.192   112571654.703 8      -528.050          52.500
  21421661.722    87718194.353 8      -411.456          49.000

  20759497.490   111127282.979 8        48.250    20759503.970    86432349.323 7
      2068.019          47.000
                  20759497.730   111127287.729 8      2658.919          49.000
                                                                  20759503.970
  86432375.078 8      2068.031          48.500
  22385582.302   119663851.673 7        45.000    22385591.192    93071905.165 6
     -2802.673          36.250
                  22385581.402   119663854.423 7     -3603.375          46.500
                                                                  22385590.602
  93071914.903 6     -2802.645          38.500
 14  8 29 20  2 56.0000000  0 22G23G11R12G25R19R17G13R 2R18G 6G 9G14-0.000191058
                                G12G20G 4G32G17R11G 1G31R 3R 1
  22190133.793   116610006.586 6        36.750    22190132.903    90864957.473 6
      2066.868          36.750
                  22190134.863   116609979.323 8      2652.503          48.750


  24298644.433   127690306.459 3        20.500    24298646.403    99498951.867 3
     -3044.753          20.500
                  24298645.093   127690297.213 7     -3907.773          42.000


  21070999.674   112557551.327 7        43.750    21071009.244    87544772.059 7
      2327.217          43.750
                  21071000.324   112557551.057 7      2992.151          44.500
                                                                  21071008.534
  87544753.818 7      2327.224          44.750
  24236332.289   127362803.645 3        20.000    24236335.339    99243742.525 3
       -58.568          20.000    24236339.879    95108587.196 6       -56.037
        36.500    24236335.479   127362820.387 6       -75.097          39.000
  24236338.439    99243745.289 6       -58.485          39.750

  22574774.626   120759845.179 7        44.500    22574780.786    93924328.003 6
      1984.026          41.000
                  22574773.656   120759860.900 7      2550.938          45.000
                                                                  22574781.406
  93924332.744 6      1984.037          41.500
  23122740.257   123734465.906 6        41.250    23122749.147    96237915.010 6
     -3486.325          38.250
                  23122742.097   123734474.663 7     -4482.393          42.250
                                                                  23122749.767
  96237933.747 6     -3486.319          40.000
  24280337.259   127594068.315 3        21.750    24280338.969    99423952.476 3
      2772.297          21.750
                  24280339.969   127594285.095 6      3557.829          41.250


  19293457.566   102953634.881 9        54.000    19293464.476    80075077.164 8
      -648.142          51.000
                  19293457.116   102954057.635 9      -833.307          54.750
                                                                  19293464.496
  80075076.920 8      -648.152          52.250
  21139579.002   112844536.653 8        49.000    21139587.042    87767979.417 7
     -1434.020          45.000
                  21139578.682   112844426.405 8     -1843.641          49.500
                                                                  21139587.472
  87767985.165 7     -1434.002          46.750
  24497906.191   128737368.828 4        26.000    24497907.891   100314834.367 4
      2549.217          26.000    24497909.671    96135042.589 6      2443.084
        37.250    24497905.241   128737364.568 7      3271.601          42.000
  24497909.781   100314837.117 7      2549.270          42.500

  20403772.796   107222650.463 8        48.750    20403774.966    83550138.103 8
       538.416          48.750
                  20403772.996   107222665.214 9       690.970          55.750


  25070849.989   131748328.247 2        15.750    25070850.869   102661058.696 2
     -2777.850          15.750
                  25070854.859   131748332.969 6     -3564.977          36.500


  24979622.252   131268813.269 1         6.250    24979633.232   102287385.670 1
     -1425.191           6.250
                  24979629.462   131268813.980 5     -1829.086          31.000
  24979625.812   102287391.386 5     -1425.260          30.000

  20152353.182   105901435.459 7        46.000    20152353.622    82520621.438 7
       617.012          46.000
                  20152354.012   105901451.198 8       791.871          53.250


  20894811.566   109803027.277 7        42.750    20894813.516    85560809.755 7
      -502.863          42.750
                  20894812.446   109803028.019 9      -645.318          54.000


  21125779.074   111016797.125 7        43.000    21125780.574    86506612.884 7
     -1607.315          43.000
                  21125780.354   111016808.877 8     -2062.693          53.000


  23768471.422   124904184.669 4        29.000    23768473.092    97327939.922 4
     -1386.086          29.000
                  23768471.802   124904172.412 7     -1778.739          45.750
  23768472.842    97327934.676 6     -1386.044          40.500

  20881836.733   111586264.278 7        47.750    20881844.883    86789336.926 6
     -1094.001          41.750
                  20881836.083   111586285.021 8     -1406.532          48.000
                                                                  20881845.303
  86789322.674 7     -1094.015          42.750
  21752579.483   114310657.998 6        39.750    21752583.693    89073257.135 6
     -2205.025          39.750    21752583.103    85361871.007 7     -2113.181
        45.000    21752579.203   114310654.746 8     -2829.781          50.000
  21752583.623    89073249.927 8     -2205.051          49.250

  21421761.850   112572183.239 7        42.500    21421761.730    87718599.216 7
      -411.857          42.500
                  21421761.940   112572182.990 8      -528.552          52.500
  21421762.200    87718606.007 8      -411.868          49.250

  20759000.661   111124624.159 8        48.250    20759007.011    86430281.343 7
      2067.931          47.250
                  20759001.121   111124628.911 8      2658.761          49.500
                                                                  20759007.331
  86430307.101 8      2067.916          48.500
  22386256.409   119667455.039 7        44.750    22386264.989    93074707.774 6
     -2802.613          36.000
                  22386258.559   119667457.790 7     -3603.365          46.500
                                                                  22386265.329
  93074717.516 6     -2802.653          38.500
 14  8 29 20  2 57.0000000  0 22G23G11R12G25R19R17G13R 2R18G 6G 9G14-0.000190988
                                G12G20G 4G32G17R11G 1G31R 3R 1
  22189629.203   116607354.711 6        37.250    22189627.963    90862891.078 6
      2066.179          37.250
                  22189629.713   116607327.461 8      2651.601          48.750


  24299390.035   127694214.803 3        20.500    24299390.125    99501997.331 3
     -3045.637          20.500
                  24299389.745   127694205.534 7     -3908.630          42.250


  21070440.071   112554559.998 7        43.750    21070449.201    87542445.472 7
      2326.203          43.750
                  21070439.841   112554559.737 7      2990.846          44.500
                                                                  21070448.531
  87542427.227 7      2326.208          45.000
  24236349.992   127362879.397 3        20.000    24236349.852    99243801.516 3
       -59.529          20.000    24236354.272    95108643.756 6       -57.123
        36.750    24236348.202   127362896.138 6       -76.292          39.250
  24236351.342    99243804.320 6       -59.614          39.500

  22574298.279   120757295.050 7        44.250    22574304.469    93922344.577 6
      1982.916          40.750
                  22574298.749   120757310.799 7      2549.532          45.500
                                                                  22574305.579
  93922349.327 6      1982.918          41.750
  23123578.021   123738948.823 6        40.750    23123586.451    96241401.719 6
     -3486.978          38.750
                  23123577.861   123738957.571 7     -4483.162          42.500
                                                                  23123585.661
  96241420.460 6     -3486.982          39.500
  24279661.756   127590511.031 3        21.750    24279663.506    99421180.598 3
      2771.958          21.750
                  24279662.966   127590727.789 6      3557.042          41.500


  19293613.746   102954468.971 9        54.000    19293620.746    80075725.900 8
      -649.085          51.000
                  19293613.946   102954891.723 9      -834.524          54.500
                                                                  19293620.576
  80075725.654 8      -649.088          52.250
  21139924.424   112846381.254 8        49.000    21139932.534    87769414.102 7
     -1435.159          45.250
                  21139923.974   112846271.006 8     -1845.191          49.750
                                                                  21139931.604
  87769419.853 7     -1435.157          47.000
  24497282.056   128734097.849 4        26.500    24497285.436   100312285.591 4
      2548.419          26.500    24497287.226    96132600.001 6      2442.302
        37.250    24497281.196   128734093.606 6      3270.664          41.500
  24497286.816   100312288.321 7      2548.470          42.250

  20403641.467   107221960.238 8        48.750    20403643.667    83549600.267 8
       537.497          48.750
                  20403641.687   107221974.988 9       689.802          55.750


  25071528.613   131751893.573 2        15.750    25071530.623   102663836.952 2
     -2778.311          15.750
                  25071532.423   131751898.368 6     -3565.463          36.000


  24979970.926   131270643.385 1         6.250    24979982.236   102288811.678 1
     -1426.266           6.250
                  24979973.936   131270644.064 5     -1830.561          32.750
  24979976.616   102288817.465 5     -1426.389          31.250

  20152202.809   105900644.361 7        45.750    20152202.889    82520004.990 7
       616.139          45.750
                  20152203.279   105900660.098 8       790.705          53.250


  20894934.634   109803673.444 7        42.750    20894936.184    85561313.258 7
      -503.889          42.750
                  20894935.304   109803674.188 9      -646.667          54.000


  21126171.861   111018860.544 7        43.000    21126173.441    86508220.744 7
     -1608.119          43.000
                  21126172.491   111018872.294 8     -2063.753          53.000


  23768810.605   124905964.122 4        28.750    23768810.855    97329326.475 4
     -1386.841          28.750
                  23768810.325   124905951.855 7     -1779.919          45.750
  23768811.545    97329321.275 6     -1386.921          40.500

  20882099.884   111587671.709 7        47.500    20882108.224    86790431.596 6
     -1095.168          41.250
                  20882099.924   111587692.448 8     -1408.101          48.000
                                                                  20882110.134
  86790417.341 7     -1095.189          42.750
  21753118.355   114313488.456 6        39.750    21753122.785    89075462.693 6
     -2205.826          39.750    21753121.705    85363984.657 7     -2113.925
        45.250    21753118.185   114313485.210 8     -2830.864          50.000
  21753122.275    89075455.477 8     -2205.834          49.250

  21421862.456   112572712.616 7        42.750    21421862.536    87719011.723 7
      -412.935          42.750
                  21421862.586   112572712.361 8      -529.920          52.500
  21421862.876    87719018.513 8      -412.931          49.000

  20758504.305   111121966.044 8        48.250    20758510.635    86428213.918 7
      2067.199          47.250
                  20758504.065   111121970.808 8      2657.817          49.500
                                                                  20758511.005
  86428239.678 8      2067.200          48.500
  22386930.683   119671058.996 7        44.750    22386939.793    93077510.876 6
     -2803.368          36.250
                  22386929.413   119671061.750 7     -3604.222          46.500
                                                                  22386941.783
  93077520.607 6     -2803.301          38.750
 14  8 29 20  2 58.0000000  0 22G23G11R12G25R19R17G13R 2R18G 6G 9G14-0.000190917
                                G12G20G 4G32G17R11G 1G31R 3R 1
  22189124.332   116604702.974 6        36.750    22189123.222    90860824.781 6
      2066.336          36.750
                  22189124.982   116604675.718 8      2651.806          49.000


  24300133.437   127698123.039 3        20.500    24300134.387    99505042.683 3
     -3045.373          20.500
                  24300133.407   127698113.739 7     -3908.186          42.500


  21069879.680   112551569.149 7        44.000    21069889.660    87540119.261 7
      2326.130          43.500
                  21069878.740   112551568.894 7      2990.747          44.750
                                                                  21069889.780
  87540101.016 7      2326.138          45.250
  24236366.017   127362955.670 3        20.000    24236362.297    99243860.960 3
       -59.721          20.000    24236368.657    95108700.723 6       -57.336
        36.500    24236362.397   127362972.389 6       -76.439          38.000
  24236366.677    99243863.745 6       -59.771          39.500

  22573821.512   120754745.465 7        44.750    22573828.232    93920361.560 6
      1982.808          40.500
                  22573823.332   120754761.213 7      2549.350          45.250
                                                                  22573828.052
  93920366.313 6      1982.801          41.500
  23124415.849   123743431.762 6        41.000    23124424.129    96244888.455 6
     -3486.721          38.500
                  23124414.249   123743440.528 7     -4482.879          42.250
                                                                  23124425.319
  96244907.209 6     -3486.712          39.750
  24278985.785   127586953.723 3        21.750    24278986.455    99418408.674 3
      2772.045          21.750
                  24278986.445   127587170.431 6      3557.407          41.500


  19293770.210   102955303.417 9        54.000    19293777.140    80076374.911 8
      -649.107          50.750
                  19293770.510   102955726.169 9      -834.575          54.500
                                                                  19293777.060
  80076374.667 8      -649.113          52.250
  21140270.074   112848226.529 8        49.000    21140277.944    87770849.315 7
     -1435.416          45.000
                  21140269.464   112848116.282 8     -1845.542          50.000
                                                                  21140277.924
  87770855.072 7     -1435.423          46.750
  24496659.452   128730826.967 4        26.750    24496663.342   100309736.814 4
      2548.795          26.750    24496665.562    96130157.441 6      2442.587
        37.750    24496658.992   128730822.719 7      3270.895          42.000
  24496664.512   100309739.571 7      2548.769          42.750

  20403510.145   107221270.356 8        48.750    20403512.385    83549062.694 8
       537.487          48.750
                  20403510.315   107221285.106 9       689.743          55.750


  25072206.440   131755458.838 2        15.750    25072208.970   102666615.022 2
     -2778.079          15.750
                  25072212.020   131755463.631 6     -3565.174          36.000


  24980318.748   131272473.908 1         6.000    24980332.348   102290238.027 1
     -1426.346           6.000
                  24980321.188   131272474.620 5     -1830.622          33.000
  24980324.038   102290243.843 5     -1426.391          30.750

  20152052.229   105899853.613 7        45.750    20152052.519    82519388.825 7
       616.132          45.750
                  20152053.089   105899869.352 8       790.666          53.250


  20895057.591   109804320.135 7        43.000    20895059.091    85561817.179 7
      -504.065          43.000
                  20895058.051   109804320.878 9      -646.891          54.000


  21126564.488   111020924.195 7        43.000    21126566.138    86509828.778 7
     -1608.056          43.000
                  21126565.228   111020935.942 8     -2063.717          53.000


  23769148.544   124907743.931 4        28.500    23769149.764    97330713.358 4
     -1386.924          28.500
                  23769148.314   124907731.670 7     -1779.873          45.750
  23769149.904    97330708.136 6     -1386.941          40.500

  20882363.550   111589079.879 7        47.500    20882371.440    86791526.843 6
     -1095.471          41.750
                  20882364.410   111589100.632 7     -1408.456          47.750
                                                                  20882371.720
  86791512.588 7     -1095.459          42.750
  21753656.658   114316319.203 6        39.000    21753661.408    89077668.477 6
     -2205.821          39.000    21753660.148    85366098.529 7     -2113.899
        45.250    21753656.618   114316315.957 8     -2830.774          50.000
  21753661.248    89077661.260 8     -2205.815          49.250

  21421963.086   112573242.510 7        42.500    21421963.496    87719424.626 7
      -413.079          42.500
                  21421963.496   112573242.256 8      -530.104          52.500
  21421963.416    87719431.417 8      -413.069          49.250

  20758007.884   111119308.088 8        48.500    20758013.894    86426146.623 7
      2067.348          47.250
                  20758006.934   111119312.836 8      2657.938          49.250
                                                                  20758014.774
  86426172.379 8      2067.346          48.500
  22387604.638   119674662.987 7        44.750    22387613.078    93080313.960 6
     -2803.024          36.500
                  22387604.678   119674665.737 7     -3603.947          47.000
                                                                  22387613.188
  93080323.699 6     -2803.063          38.750
 14  8 29 20  2 59.0000000  0 22G23G11R12G25R19R17G13R 2R18G 6G 9G14-0.000190846
                                G12G20G 4G32G17R11G 1G31R 3R 1
  22188619.340   116602051.570 6        37.000    22188619.070    90858758.756 6
      2065.771          37.000
                  22188620.450   116602024.310 8      2651.169          48.750


  24300875.254   127702031.336 3        20.500    24300880.394    99508088.180 3
     -3045.674          20.500
                  24300877.324   127702022.037 7     -3908.534          42.250


  21069320.278   112548578.985 7        43.750    21069329.588    87537793.576 7
      2325.352          43.500
                  21069320.398   112548578.724 7      2989.741          44.500
                                                                  21069328.858
  87537775.332 7      2325.354          45.250
  24236378.300   127363032.558 3        21.000    24236377.910    99243920.921 3
       -60.223          21.000    24236382.740    95108758.156 6       -57.739
        36.250    24236377.150   127363049.297 6       -77.412          38.500
  24236381.220    99243923.687 6       -60.228          39.000

  22573344.697   120752196.642 7        44.750    22573350.917    93918379.152 6
      1981.991          40.250
                  22573345.757   120752212.392 7      2548.329          45.250
                                                                  22573352.157
  93918383.897 6      1982.011          41.500
  23125253.803   123747914.926 6        41.500    23125262.193    96248375.360 6
     -3487.117          38.500
                  23125253.323   123747923.676 7     -4483.456          42.250
                                                                  23125262.733
  96248394.106 6     -3487.125          39.750
  24278308.586   127583396.515 3        21.000    24278311.016    99415636.797 3
      2771.667          21.000
                  24278308.876   127583613.253 6      3557.020          41.750


  19293926.687   102956138.443 8        53.750    19293933.557    80077024.378 8
      -649.827          51.000
                  19293926.507   102956561.190 9      -835.449          54.500
                                                                  19293933.477
  80077024.132 8      -649.835          52.250
  21140616.380   112850072.672 8        49.000    21140624.040    87772285.206 7
     -1436.375          45.000
                  21140615.790   112849962.427 8     -1846.690          50.250
                                                                  21140623.040
  87772290.956 7     -1436.372          47.000
  24496037.913   128727556.375 4        27.000    24496042.253   100307188.288 4
      2548.401          27.000    24496042.703    96127715.130 6      2442.188
        37.500    24496038.433   128727552.123 6      3270.305          41.750
  24496041.683   100307191.059 7      2548.333          42.750

  20403378.911   107220581.035 8        48.750    20403381.241    83548525.562 8
       536.811          48.750
                  20403378.901   107220595.787 9       688.922          55.750


  25072883.403   131759024.198 2        14.500    25072885.953   102669393.246 2
     -2778.545          14.500
                  25072888.483   131759028.981 6     -3565.591          36.500


  24980666.157   131274305.069 1         6.000    24980678.707   102291664.892 1
     -1427.141           6.000
                  24980676.167   131274305.778 5     -1831.403          33.250
  24980672.787   102291670.675 5     -1427.132          31.250

  20151901.713   105899063.438 7        46.000    20151902.093    82518773.106 7
       615.387          46.000
                  20151902.833   105899079.183 8       789.786          53.250


  20895181.038   109804967.557 7        42.750    20895182.538    85562321.657 7
      -504.881          42.750
                  20895181.488   109804968.302 9      -647.913          54.000


  21126957.225   111022988.244 7        43.000    21126958.925    86511437.127 7
     -1608.634          43.000
                  21126957.935   111022999.990 8     -2064.366          52.750


  23769486.697   124909524.305 4        28.500    23769489.277    97332100.657 4
     -1387.638          28.500
                  23769487.457   124909512.047 7     -1780.741          45.750
  23769489.397    97332095.444 6     -1387.646          40.750

  20882627.138   111590489.005 7        47.250    20882635.438    86792622.824 6
     -1096.435          41.250
                  20882627.238   111590509.743 7     -1409.720          47.750
                                                                  20882636.638
  86792608.572 7     -1096.469          42.500
  21754195.603   114319150.463 6        40.000    21754200.143    89079874.646 6
     -2206.476          40.000    21754199.313    85368212.778 7     -2114.528
        45.250    21754195.333   114319147.210 8     -2831.611          49.750
  21754199.963    89079867.429 8     -2206.468          49.500

  21422064.194   112573773.130 7        42.250    21422064.024    87719838.096 7
      -413.857          42.250
                  21422064.604   112573772.878 8      -531.095          52.250
  21422064.774    87719844.889 8      -413.855          49.000

  20757511.415   111116650.512 8        48.250    20757517.525    86424079.622 7
      2066.770          47.000
                  20757511.155   111116655.266 8      2657.302          49.500
                                                                  20757517.645
  86424105.378 8      2066.785          48.500
  22388278.889   119678267.211 7        44.750    22388286.729    93083117.246 6
     -2803.453          36.250
                  22388279.559   119678269.969 7     -3604.420          46.750
                                                                  22388286.769
  93083126.988 6     -2803.447          39.000
 14  8 29 20  3  0.0000000  0 22G23G11R12G25R19R17G13R 2R18G 6G 9G14-0.000190776
                                G12G20G 4G32G17R11G 1G31R 3R 1
  22188114.272   116599400.370 6        36.750    22188114.762    90856692.891 6
      2065.774          36.750
                  22188115.902   116599373.112 8      2651.016          49.000


  24301618.275   127705939.662 3        20.500    24301622.485    99511133.620 3
     -3045.583          20.500
                  24301620.245   127705930.417 7     -3908.500          42.000


  21068760.705   112545589.401 7        44.000    21068770.165    87535468.346 7
      2324.993          43.500
                  21068759.345   112545589.154 7      2989.127          44.500
                                                                  21068769.605
  87535450.097 7      2324.990          45.250
  24236392.432   127363110.093 3        21.000    24236393.992    99243981.348 3
       -60.316          21.000    24236398.172    95108816.044 6       -57.891
        36.500    24236392.032   127363126.834 6       -77.543          38.250
  24236394.562    99243984.090 6       -60.400          39.500

  22572868.757   120749648.465 7        44.750    22572874.927    93916397.233 6
      1981.699          40.500
                  22572869.657   120749664.218 7      2547.763          45.750
                                                                  22572876.107
  93916401.986 6      1981.668          41.250
  23126091.618   123752398.185 6        41.500    23126100.578    96251862.342 6
     -3487.064          38.250
                  23126090.368   123752406.947 7     -4483.499          42.500
                                                                  23126101.888
  96251881.082 6     -3487.054          39.500
  24277632.763   127579839.399 3        21.000    24277631.993    99412865.053 3
      2771.678          21.000
                  24277629.963   127580056.130 6      3556.912          41.000


  19294083.045   102956973.935 9        54.000    19294090.055    80077674.206 8
      -650.040          51.000
                  19294083.415   102957396.685 9      -835.827          54.500
                                                                  19294090.435
  80077673.960 8      -650.042          52.250
  21140962.289   112851919.600 8        49.250    21140970.069    87773721.705 7
     -1436.875          45.250
                  21140962.009   112851809.356 8     -1847.413          50.250
                                                                  21140970.089
  87773727.459 7     -1436.890          47.000
  24495416.843   128724285.998 4        26.750    24495419.323   100304639.946 4
      2548.258          26.750    24495420.313    96125272.959 6      2442.092
        37.500    24495416.043   128724281.741 7      3270.219          42.000
  24495419.953   100304642.713 7      2548.284          42.500

  20403247.838   107219892.165 8        48.500    20403250.058    83547988.780 8
       536.583          48.500
                  20403247.858   107219906.910 9       688.603          55.750


  25073562.495   131762589.466 2        14.500    25073567.325   102672171.375 2
     -2778.084          14.500
                  25073567.325   131762594.237 6     -3565.358          36.250


  24981018.164   131276136.676 1         6.000    24981025.074   102293092.226 1
     -1427.561           6.000
                  24981022.004   131276137.408 5     -1831.805          32.500
  24981020.474   102293097.917 5     -1427.302          31.000

  20151751.535   105898273.728 7        45.500    20151751.875    82518157.741 7
       615.114          45.500
                  20151752.595   105898289.469 8       789.375          53.250


  20895304.345   109805615.621 7        43.000    20895305.855    85562826.642 7
      -505.285          43.000
                  20895304.535   109805616.355 9      -648.465          54.000


  21127350.123   111025052.619 7        42.750    21127351.723    86513045.731 7
     -1608.804          42.750
                  21127350.813   111025064.366 8     -2064.676          53.000


  23769826.491   124911305.149 4        28.250    23769827.901    97333488.334 4
     -1387.897          28.250
                  23769825.431   124911292.881 7     -1781.183          45.250
  23769827.841    97333483.093 6     -1387.802          40.250

  20882891.211   111591898.967 7        47.500    20882899.441    86793719.467 6
     -1097.007          41.250
                  20882891.871   111591919.711 7     -1410.464          47.750
                                                                  20882899.111
  86793705.205 7     -1096.984          42.500
  21754734.164   114321982.116 6        39.750    21754738.724    89082081.129 6
     -2206.666          39.750    21754737.974    85370327.323 7     -2114.704
        45.000    21754733.634   114321978.864 8     -2831.901          49.750
  21754738.834    89082073.904 8     -2206.643          49.500

  21422165.168   112574304.380 7        42.000    21422165.578    87720252.055 7
      -414.272          42.000
                  21422165.808   112574304.130 8      -531.646          52.250
  21422165.948    87720258.851 8      -414.277          49.250

  20757015.108   111113993.220 8        48.500    20757021.208    86422012.839 7
      2066.656          47.250
                  20757014.528   111113997.965 8      2657.124          49.250
                                                                  20757021.158
  86422038.594 8      2066.654          48.500
  22388953.123   119681871.578 7        45.000    22388961.673    93085920.642 6
     -2803.460          36.750
                  22388954.463   119681874.329 7     -3604.526          46.500
                                                                  22388961.463
  93085930.384 6     -2803.499          38.750
 14  8 29 20  3  1.0000000  0 22G23G11R12G25R19R17G13R 2R18G 6G 9G14-0.000190705
                                G12G20G 4G32G17R11G 1G31R 3R 1
  22187610.577   116596749.343 6        36.750    22187609.867    90854627.156 6
      2065.481          36.750
                  22187611.207   116596722.079 8      2650.678          49.000


  24302363.988   127709847.965 3        20.500    24302367.768    99514178.999 3
     -3045.621          20.500
                  24302364.768   127709838.660 7     -3908.549          42.250


  21068200.903   112542600.370 7        44.250    21068210.533    87533143.549 7
      2324.352          43.750
                  21068200.613   112542600.118 7      2988.495          44.250
                                                                  21068209.283
  87533125.297 7      2324.329          45.000
  24236404.800   127363188.233 3        21.000    24236409.250    99244042.263 3
       -61.615          21.000    24236412.700    95108874.409 6       -58.877
        36.250    24236407.420   127363204.988 6       -78.786          38.250
  24236410.310    99244044.998 6       -61.447          39.500

  22572392.489   120747100.872 7        45.000    22572399.239    93914415.778 6
      1980.982          41.250
                  22572391.509   120747116.612 7      2546.979          45.500
                                                                  22572398.079
  93914420.517 6      1980.999          41.500
  23126929.267   123756881.514 6        41.500    23126938.537    96255349.372 6
     -3487.254          38.250
                  23126925.907   123756890.267 7     -4483.592          42.500
                                                                  23126938.767
  96255368.115 6     -3487.244          40.000
  24276954.801   127576282.232 3        21.750    24276957.561    99410093.191 3
      2771.776          21.750
                  24276954.071   127576498.960 6      3556.977          41.000


  19294239.806   102957809.831 8        53.750    19294246.636    80078324.350 8
      -650.525          51.000
                  19294239.856   102958232.585 9      -836.395          54.500
                                                                  19294246.856
  80078324.101 8      -650.528          52.250
  21141308.265   112853767.259 8        49.000    21141316.475    87775158.773 7
     -1437.587          45.250
                  21141308.275   112853657.020 8     -1848.322          50.250
                                                                  21141315.975
  87775164.522 7     -1437.594          47.000
  24494792.425   128721015.718 4        25.750    24494799.075   100302091.674 4
      2548.126          25.750    24494798.365    96122830.872 6      2441.830
        37.750    24494792.625   128721011.440 6      3269.929          41.750
  24494798.555   100302094.453 7      2548.061          42.750

  20403116.732   107219203.684 8        48.750    20403119.182    83547452.303 8
       536.109          48.750
                  20403116.702   107219218.431 9       687.997          55.750


  25074240.287   131766154.686 2        14.500    25074245.177   102674949.456 2
     -2778.192          14.500
                  25074244.577   131766159.443 6     -3565.378          36.750


  24981367.975   131277968.711 1         6.000    24981375.145   102294519.736 1
     -1427.851           6.000
                  24981369.545   131277969.475 5     -1832.592          33.750
  24981369.805   102294525.542 5     -1428.005          32.250

  20151601.260   105897484.387 7        45.750    20151601.720    82517542.670 7
       614.694          45.750
                  20151602.210   105897500.123 8       788.848          53.250


  20895427.828   109806264.225 7        43.000    20895429.308    85563332.048 7
      -505.847          43.000
                  20895427.818   109806264.963 9      -649.171          54.000


  21127743.090   111027117.202 7        43.000    21127744.470    86514654.493 7
     -1609.085          43.000
                  21127743.410   111027128.949 8     -2065.013          52.750


  23770165.848   124913086.339 4        28.500    23770168.058    97334876.278 4
     -1388.463          28.500
                  23770165.588   124913074.081 7     -1781.682          45.000
  23770165.408    97334871.046 6     -1388.297          40.500

  20883155.088   111593309.713 7        47.500    20883163.488    86794816.709 6
     -1097.793          41.750
                  20883154.528   111593330.458 7     -1411.427          47.750
                                                                  20883164.238
  86794802.459 7     -1097.784          43.000
  21755273.462   114324814.090 6        39.500    21755277.562    89084287.853 6
     -2207.097          39.500    21755276.702    85372442.108 7     -2115.151
        45.500    21755272.832   114324810.846 8     -2832.470          49.750
  21755277.592    89084280.643 8     -2207.129          49.500

  21422266.203   112574836.166 7        42.250    21422266.453    87720666.431 7
      -414.761          42.250
                  21422267.033   112574835.912 8      -532.297          52.500
  21422266.543    87720673.231 8      -414.775          49.000

  20756518.649   111111336.100 8        48.500    20756525.049    86419946.191 7
      2066.343          47.250
                  20756518.179   111111340.847 8      2656.734          49.500
                                                                  20756525.139
  86419971.947 8      2066.335          48.500
  22389627.524   119685476.001 7        44.750    22389636.784    93088724.081 6
     -2803.686          36.750
                  22389628.664   119685478.742 7     -3604.729          46.250
                                                                  22389635.254
  93088733.820 6     -2803.679          38.750
 14  8 29 20  3  2.0000000  0 22G23G11R12G25R19R17G13R 2R18G 6G 9G14-0.000190635
                                G12G20G 4G32G17R11G 1G31R 3R 1
  22187106.876   116594098.867 6        37.000    22187105.386    90852561.855 6
      2065.078          37.000
                  22187107.196   116594071.611 8      2650.181          49.000


  24303108.307   127713756.587 3        20.500    24303109.117    99517224.670 3
     -3046.033          20.500
                  24303107.357   127713747.278 7     -3908.923          42.250


  21067641.668   112539612.293 7        43.750    21067651.048    87530819.494 7
      2323.656          43.500
                  21067641.078   112539612.033 7      2987.588          44.500
                                                                  21067648.788
  87530801.235 7      2323.655          45.000
  24236420.547   127363267.231 3        21.250    24236424.377    99244103.790 3
       -61.952          21.250    24236428.147    95108933.396 6       -59.366
        36.750    24236422.587   127363283.972 6       -79.518          38.250
  24236426.867    99244106.552 6       -61.946          39.500

  22571915.982   120744554.237 7        44.750    22571922.832    93912435.055 6
      1980.292          40.750
                  22571917.962   120744569.980 7      2546.075          46.000
                                                                  22571922.722
  93912439.797 7      1980.322          42.000
  23127767.139   123761365.334 6        41.500    23127775.729    96258836.778 6
     -3487.626          38.500
                  23127767.979   123761374.076 7     -4484.076          42.250
                                                                  23127777.059
  96258855.527 6     -3487.625          40.000
  24276278.377   127572725.440 3        21.750    24276279.317    99407321.731 3
      2771.348          21.750
                  24276279.877   127572942.177 6      3556.567          41.000


  19294396.569   102958646.532 8        53.750    19294403.819    80078975.115 8
      -651.086          51.000
                  19294396.479   102959069.282 9      -837.133          54.750
                                                                  19294403.349
  80078974.869 8      -651.094          52.250
  21141654.208   112855616.039 8        49.000    21141662.388    87776596.708 7
     -1438.453          45.250
                  21141654.058   112855505.788 8     -1849.412          50.500
                                                                  21141662.288
  87776602.468 7     -1438.452          47.000
  24494169.824   128717745.935 4        25.750    24494176.804   100299543.825 4
      2547.760          25.750    24494175.164    96120389.168 6      2441.510
        38.500    24494170.184   128717741.689 6      3269.495          41.750
  24494176.164   100299546.608 7      2547.681          42.750

  20402986.051   107218515.977 8        48.750    20402988.191    83546916.429 8
       535.534          48.750
                  20402985.891   107218530.721 9       687.276          55.750


  25074922.182   131769720.192 2        14.500    25074926.012   102677727.766 2
     -2778.614          14.500
                  25074924.242   131769724.954 6     -3565.825          37.250


  24981717.398   131279801.661 1         6.000    24981723.858   102295948.052 1
     -1429.016           6.000
                  24981715.838   131279802.439 5     -1833.452          32.500
  24981720.888   102295953.811 5     -1428.938          31.500

  20151451.136   105896695.842 7        45.750    20151451.556    82516928.217 7
       614.120          45.750
                  20151451.876   105896711.581 8       788.118          53.250


  20895551.550   109806913.801 7        42.750    20895552.740    85563838.204 7
      -506.552          42.750
                  20895551.450   109806914.536 9      -650.057          54.000


  21128135.991   111029182.447 7        43.000    21128137.521    86516263.777 7
     -1609.576          43.000
                  21128136.671   111029194.186 8     -2065.633          52.500


  23770503.159   124914868.343 4        28.250    23770506.949    97336264.839 4
     -1388.914          28.250
                  23770503.769   124914856.094 7     -1782.441          45.250
  23770507.089    97336259.618 6     -1388.930          40.250

  20883419.261   111594721.623 7        47.500    20883427.381    86795914.861 6
     -1098.623          41.500
                  20883418.741   111594742.366 8     -1412.502          48.000
                                                                  20883429.921
  86795900.615 7     -1098.628          42.750
  21755812.506   114327646.779 6        39.500    21755816.606    89086495.151 6
     -2207.614          39.500    21755816.026    85374557.428 7     -2115.608
        45.000    21755812.066   114327643.535 8     -2833.065          49.500
  21755816.436    89086487.928 8     -2207.591          49.500

  21422367.832   112575368.906 7        42.750    21422367.752    87721081.557 7
      -415.502          42.750
                  21422368.162   112575368.651 8      -533.239          52.500
  21422368.082    87721088.356 8      -415.528          49.000

  20756022.316   111108679.566 8        48.250    20756028.436    86417880.005 7
      2065.896          47.250
                  20756021.276   111108684.323 8      2656.141          49.250
                                                                  20756028.486
  86417905.760 8      2065.887          48.500
  22390301.942   119689080.862 7        44.500    22390310.682    93091527.853 6
     -2803.903          36.250
                  22390303.092   119689083.609 7     -3605.176          45.750
                                                                  22390311.572
  93091537.594 6     -2803.942          38.250
 14  8 29 20  3  3.0000000  0 22G23G11R12G25R19R17G13R 2R18G 6G 9G14-0.000190564
                                G12G20G 4G32G17R11G 1G31R 3R 1
  22186602.199   116591448.778 6        36.750    22186601.299    90850496.848 6
      2064.920          36.750
                  22186602.499   116591421.517 8      2649.996          48.750


  24303851.565   127717665.370 3        20.750    24303852.545    99520270.492 3
     -3045.844          20.750
                  24303852.125   127717656.072 7     -3908.842          42.500


  21067082.727   112536624.916 7        43.750    21067091.317    87528495.978 7
      2323.354          43.500
                  21067082.097   112536624.654 7      2987.157          44.000
                                                                  21067091.987
  87528477.729 7      2323.364          45.000
  24236434.833   127363346.983 3        21.250    24236441.723    99244165.968 3
       -62.315          21.250    24236442.843    95108992.971 6       -59.733
        37.000    24236438.353   127363363.717 6       -80.032          38.750
  24236442.643    99244168.708 6       -62.306          39.500

  22571440.326   120742008.395 7        45.000    22571447.006    93910454.953 6
      1979.894          41.250
                  22571440.696   120742024.150 7      2545.589          46.000
                                                                  22571446.186
  93910459.692 6      1979.911          41.500
  23128605.072   123765849.455 6        41.250    23128613.932    96262324.429 6
     -3487.642          38.500
                  23128603.462   123765858.213 7     -4484.189          42.500
                                                                  23128614.422
  96262343.172 6     -3487.623          40.000
  24275603.040   127569168.900 3        21.750    24275604.360    99404550.360 3
      2771.487          21.750
                  24275601.690   127569385.642 6      3556.483          41.000


  19294553.673   102959483.861 8        53.750    19294560.633    80079626.368 8
      -651.409          51.000
                  19294553.813   102959906.609 9      -837.525          54.750
                                                                  19294560.813
  80079626.121 8      -651.417          52.000
  21142000.634   112857465.716 8        49.000    21142008.454    87778035.344 7
     -1438.931          45.250
                  21142001.104   112857355.466 8     -1850.046          50.500
                                                                  21142008.744
  87778041.103 7     -1438.924          46.750
  24493550.494   128714476.556 4        26.750    24493553.014   100296996.255 4
      2547.535          26.750    24493553.334    96117947.748 6      2441.343
        37.500    24493549.194   128714472.316 6      3269.306          41.500
  24493554.084   100296999.039 7      2547.524          42.750

  20402855.176   107217828.885 8        48.750    20402857.436    83546381.033 8
       535.252          48.750
                  20402855.046   107217843.635 9       686.901          55.500


  25075598.900   131773285.844 2        14.500    25075601.650   102680506.105 2
     -2778.242          14.500
                  25075604.840   131773290.551 6     -3565.599          37.000


  24982065.585   131281635.257 1         6.000    24982074.065   102297376.824 1
     -1429.068           6.000
                  24982067.495   131281636.015 5     -1834.020          33.250
  24982067.205   102297382.553 5     -1429.291          32.500

  20151301.245   105895907.919 7        45.750    20151301.805    82516314.246 7
       613.845          45.750
                  20151302.235   105895923.662 8       787.756          53.250


  20895675.205   109807564.164 7        43.000    20895676.745    85564344.987 7
      -507.013          43.000
                  20895675.285   109807564.899 8      -650.642          53.750


  21128529.067   111031248.177 7        43.000    21128530.817    86517873.434 7
     -1609.796          43.000
                  21128529.307   111031259.922 8     -2065.897          52.500


  23770843.551   124916650.924 4        28.250    23770846.421    97337653.887 4
     -1389.125          28.250
                  23770842.921   124916638.706 7     -1782.841          45.000
  23770845.351    97337648.663 6     -1389.149          41.000

  20883684.249   111596134.546 7        47.750    20883692.249    86797013.804 6
     -1099.184          41.500
                  20883684.279   111596155.294 8     -1413.242          48.250
                                                                  20883693.069
  86796999.551 7     -1099.198          43.250
  21756351.657   114330480.034 6        39.500    21756356.227    89088702.875 6
     -2207.843          39.500    21756355.197    85376673.174 7     -2115.865
        45.250    21756352.037   114330476.784 8     -2833.385          49.500
  21756355.477    89088695.656 8     -2207.844          49.500

  21422469.475   112575902.436 7        42.500    21422469.315    87721497.298 7
      -415.960          42.500
                  21422469.765   112575902.185 8      -533.818          52.500
  21422469.465    87721504.096 8      -415.973          49.000

  20755525.788   111106023.432 8        48.500    20755532.118    86415814.118 7
      2065.783          46.750
                  20755525.468   111106028.183 8      2656.042          49.250
                                                                  20755532.308
  86415839.877 8      2065.790          48.250
  22390976.223   119692686.028 7        44.500    22390985.293    93094331.881 6
     -2804.048          36.500
                  22390976.593   119692688.771 7     -3605.193          45.750
                                                                  22390985.153
  93094341.622 6     -2804.037          38.750
 14  8 29 20  3  4.0000000  0 22G23G11R12G25R19R17G13R 2R18G 6G 9G14-0.000190493
                                G12G20G 4G32G17R11G 1G31R 3R 1
  22186097.109   116588799.323 6        36.500    22186097.559    90848432.341 6
      2064.087          36.500
                  22186098.659   116588772.065 8      2648.960          48.500


  24304595.456   127721574.542 3        20.750    24304596.256    99523316.577 3
     -3046.376          20.750
                  24304595.506   127721565.280 7     -3909.698          42.250


  21066523.334   112533638.527 7        44.000    21066532.744    87526173.235 7
      2322.203          43.500
                  21066524.704   112533638.275 7      2985.776          44.250
                                                                  21066533.234
  87526154.976 7      2322.205          45.000
  24236452.524   127363427.795 3        21.250    24236456.094    99244228.936 3
       -63.527          21.250    24236458.684    95109053.342 6       -60.987
        36.750    24236453.714   127363444.566 6       -81.462          38.500
  24236457.864    99244231.703 6       -63.630          39.250

  22570964.739   120739463.646 7        45.000    22570971.259    93908475.711 6
      1978.707          41.000
                  22570964.979   120739479.403 7      2544.126          46.250
                                                                  22570970.859
  93908480.446 6      1978.717          41.750
  23129443.035   123770334.110 6        41.500    23129451.855    96265812.489 6
     -3488.331          39.250
                  23129443.355   123770342.860 7     -4485.058          42.250
                                                                  23129451.595
  96265831.239 6     -3488.346          40.500
  24274927.953   127565612.800 3        21.500    24274926.153    99401779.401 3
      2770.602          21.500
                  24274924.833   127565829.568 6      3555.663          41.000


  19294710.783   102960322.042 8        53.750    19294717.733    80080278.287 8
      -652.391          51.000
                  19294710.323   102960744.795 9      -838.787          54.500
                                                                  19294717.673
  80080278.041 8      -652.386          52.000
  21142347.431   112859316.588 8        49.000    21142355.721    87779474.911 7
     -1440.193          45.000
                  21142347.251   112859206.329 8     -1851.650          50.250
                                                                  21142355.341
  87779480.673 7     -1440.209          46.750
  24492925.641   128711207.795 4        26.250    24492931.671   100294449.148 4
      2546.701          26.250    24492930.991    96115506.778 6      2440.524
        37.500    24492926.081   128711203.520 6      3268.314          41.500
  24492931.961   100294451.927 7      2546.655          43.000

  20402724.634   107217142.656 8        48.750    20402726.884    83545846.308 8
       534.254          48.750
                  20402724.574   107217157.400 9       685.628          55.250


  25076278.386   131776851.843 2        14.500    25076278.506   102683284.853 2
     -2778.910          14.500
                  25076283.246   131776856.553 6     -3566.288          37.000


  24982415.446   131283469.692 1         6.250    24982422.986   102298806.209 1
     -1429.801           6.250
                  24982415.506   131283470.420 5     -1834.932          33.000
  24982415.936   102298811.960 5     -1429.676          31.000

  20151151.466   105895120.873 7        46.000    20151151.866    82515700.964 7
       612.804          46.000
                  20151152.566   105895136.613 8       786.454          53.000


  20895799.026   109808215.561 7        43.500    20895800.676    85564852.571 7
      -508.110          43.500
                  20895799.366   109808216.297 8      -652.095          53.750


  21128922.338   111033314.603 7        43.250    21128924.058    86519483.640 7
     -1610.644          43.250
                  21128922.538   111033326.345 8     -2066.955          52.500


  23771183.405   124918434.416 4        28.500    23771184.695    97339043.616 4
     -1390.234          28.500
                  23771182.685   124918422.172 7     -1784.149          44.750
  23771184.855    97339038.396 6     -1390.306          41.000

  20883948.487   111597548.731 7        47.500    20883956.147    86798113.724 6
     -1100.576          41.500
                  20883948.327   111597569.482 8     -1414.961          48.500
                                                                  20883956.897
  86798099.471 7     -1100.570          43.000
  21756890.745   114333314.082 6        39.500    21756895.315    89090911.222 6
     -2208.762          39.500    21756894.005    85378789.500 7     -2116.743
        45.500    21756891.235   114333310.826 8     -2834.591          49.500
  21756894.985    89090904.005 8     -2208.779          49.500

  21422571.187   112576436.993 7        42.500    21422571.117    87721913.835 7
      -417.089          42.500
                  21422570.747   112576436.744 8      -535.259          52.500
  21422570.787    87721920.626 8      -417.103          49.000

  20755029.857   111103367.954 8        48.250    20755036.357    86413748.749 7
      2064.944          47.000
                  20755030.307   111103372.697 8      2654.993          49.250
                                                                  20755036.327
  86413774.503 8      2064.938          48.250
  22391651.060   119696291.714 7        44.750    22391660.730    93097136.296 5
     -2804.758          35.500
                  22391651.300   119696294.463 7     -3606.121          45.750
                                                                  22391656.080
  93097146.044 6     -2804.802          38.250
 14  8 29 20  3  5.0000000  0 22G23G11R12G25R19R17G13R 2R18G 6G 9G14-0.000190422
                                G12G20G 4G32G17R11G 1G31R 3R 1
  22185593.669   116586150.389 6        37.000    22185592.809    90846368.234 6
      2064.402          37.000
                  22185594.459   116586123.128 8      2649.258          48.500


  24305338.252   127725484.073 3        20.750    24305344.892    99526362.988 3
     -3046.021          20.750
                  24305340.712   127725474.825 7     -3909.110          42.500


  21065964.028   112530653.039 7        43.750    21065973.968    87523851.190 7
      2322.174          43.500
                  21065963.688   112530652.775 7      2985.541          44.000
                                                                  21065973.648
  87523832.932 7      2322.174          45.250
  24236467.089   127363509.580 3        22.000    24236471.629    99244292.657 3
       -63.661          22.000    24236473.839    95109114.376 6       -61.114
        36.250    24236466.449   127363526.297 6       -81.629          37.500
  24236472.629    99244295.396 6       -63.793          39.750

  22570489.259   120736919.870 7        45.000    22570495.779    93906497.203 6
      1978.656          41.250
                  22570488.939   120736935.625 7      2543.884          46.250
                                                                  22570495.759
  93906501.948 6      1978.655          41.500
  23130281.331   123774819.226 6        41.500    23130290.661    96269300.916 6
     -3488.089          38.750
                  23130280.501   123774827.975 7     -4484.717          42.500
                                                                  23130289.651
  96269319.672 6     -3488.094          40.500
  24274250.832   127562057.086 3        21.500    24274246.312    99399008.736 3
      2771.019          21.500
                  24274248.912   127562273.818 6      3556.147          40.750


  19294867.920   102961160.989 9        54.000    19294874.840    80080930.804 8
      -652.326          51.000
                  19294867.720   102961583.745 9      -838.730          54.500
                                                                  19294875.450
  80080930.557 8      -652.329          52.000
  21142694.350   112861168.548 8        49.000    21142702.860    87780915.325 7
     -1440.366          45.250
                  21142693.700   112861058.297 8     -1851.893          50.000
                                                                  21142701.390
  87780921.081 7     -1440.369          46.500
  24492305.177   128707939.457 4        26.750    24492309.017   100291902.436 4
      2546.957          26.750    24492309.517    96113066.146 6      2440.957
        37.500    24492304.237   128707935.196 6      3268.701          41.500
  24492309.867   100291905.183 7      2547.092          42.750

  20402594.231   107216457.179 8        48.750    20402596.501    83545312.170 8
       534.315          48.750
                  20402594.341   107216471.926 9       685.701          55.250


  25076958.330   131780418.058 2        14.500    25076957.540   102686063.784 2
     -2778.506          14.500
                  25076959.920   131780422.829 6     -3565.811          37.500


  24982762.538   131285305.035 1         7.250    24982773.438   102300236.362 1
     -1429.983           7.250
                  24982766.638   131285305.722 5     -1835.072          32.750
  24982763.118   102300242.101 5     -1430.070          31.500

  20151001.776   105894334.580 7        46.000    20151002.326    82515088.267 7
       612.896          46.000
                  20151002.736   105894350.320 8       786.521          52.750


  20895923.124   109808867.898 7        43.000    20895924.454    85565360.888 7
      -508.231          43.000
                  20895923.714   109808868.633 8      -652.202          53.750


  21129315.427   111035381.637 7        43.250    21129317.327    86521094.313 7
     -1610.425          43.250
                  21129316.337   111035393.381 8     -2066.743          52.500


  23771523.954   124920218.638 4        28.500    23771523.184    97340433.917 4
     -1390.173          28.500
                  23771521.534   124920206.386 7     -1783.990          44.750
  23771524.794    97340428.696 6     -1390.113          40.250

  20884213.367   111598964.056 7        47.500    20884221.197    86799214.536 6
     -1100.795          41.500
                  20884213.557   111598984.797 8     -1415.290          48.500
                                                                  20884221.577
  86799200.279 7     -1100.770          43.250
  21757430.063   114336148.829 6        39.500    21757434.623    89093120.120 6
     -2208.737          39.500    21757433.703    85380906.364 7     -2116.707
        45.500    21757430.213   114336145.574 8     -2834.545          49.500
  21757434.383    89093112.905 8     -2208.749          49.500

  21422673.132   112576972.482 7        42.250    21422673.072    87722331.097 7
      -417.160          42.250
                  21422672.952   112576972.230 8      -535.364          52.250
  21422673.042    87722337.890 8      -417.182          49.000

  20754533.840   111100713.026 8        48.250    20754540.470    86411683.804 7
      2065.259          47.000
                  20754534.330   111100717.784 8      2655.284          49.000
                                                                  20754540.150
  86411709.562 8      2065.251          48.250
  22392326.198   119699897.828 7        45.000    22392334.008    93099941.051 6
     -2804.460          36.250
                  22392326.088   119699900.563 7     -3605.710          46.000
                                                                  22392333.928
  93099950.799 6     -2804.462          38.250
 14  8 29 20  3  6.0000000  0 22G23G11R12G25R19R17G13R 2R18G 6G 9G14-0.000190351
                                G12G20G 4G32G17R11G 1G31R 3R 1
  22185089.661   116583501.551 6        36.750    22185088.741    90844304.205 6
      2064.045          36.750
                  22185090.471   116583474.298 8      2648.816          48.750


  24306083.172   127729393.488 3        21.250    24306085.232    99529409.307 3
     -3046.270          21.250
                  24306084.452   127729384.225 7     -3909.313          42.500


  21065406.010   112527668.054 7        44.000    21065415.330    87521529.532 7
      2321.511          43.250
                  21065405.870   112527667.778 7      2984.755          44.250
                                                                  21065414.220
  87521511.275 7      2321.509          45.000
  24236483.428   127363591.704 3        22.000    24236487.068    99244356.635 3
       -64.061          22.000    24236489.688    95109175.694 6       -61.396
        36.750    24236483.148   127363608.427 6       -82.269          37.750
  24236488.588    99244359.392 6       -64.068          40.250

  22570013.687   120734376.605 7        45.250    22570020.127    93904519.111 6
      1977.917          40.750
                  22570014.487   120734392.350 7      2543.012          46.500
                                                                  22570020.557
  93904523.847 7      1977.931          42.000
  23131118.944   123779304.305 6        41.250    23131129.084    96272789.304 6
     -3488.320          38.750
                  23131118.814   123779313.045 7     -4485.057          42.250
                                                                  23131129.934
  96272808.062 6     -3488.314          39.750
  24273571.128   127558501.283 3        21.500    24273572.618    99396237.948 3
      2770.831          21.500
                  24273570.428   127558717.998 6      3555.946          40.500


  19295025.355   102962000.292 8        53.750    19295032.005    80081583.592 8
      -652.916          50.500
                  19295025.315   102962423.045 9      -839.479          54.500
                                                                  19295032.095
  80081583.342 8      -652.922          51.750
  21143041.551   112863021.143 8        49.000    21143049.571    87782356.234 7
     -1441.111          44.750
                  21143040.811   112862910.900 8     -1852.859          49.750
                                                                  21143049.271
  87782361.984 7     -1441.126          46.000
  24491682.993   128704671.243 4        26.500    24491687.873   100289355.736 4
      2546.684          26.500    24491687.803    96110625.584 6      2440.561
        37.500    24491682.803   128704666.948 6      3268.169          41.000
  24491688.093   100289358.521 7      2546.676          42.750

  20402463.741   107215772.024 8        48.750    20402466.221    83544778.287 8
       533.764          48.750
                  20402464.081   107215786.772 9       684.996          55.250


  25077635.977   131783984.174 2        14.500    25077636.697   102688842.555 2
     -2778.743          14.500
                  25077640.347   131783988.932 6     -3566.157          37.750


  24983110.409   131287140.707 1         7.250    24983122.259   102301666.747 1
     -1430.677           7.250
                  24983110.769   131287141.371 5     -1835.751          32.750
  24983114.099   102301672.507 5     -1430.642          31.500

  20150852.178   105893548.616 7        45.750    20150852.578    82514475.826 7
       612.346          45.750
                  20150852.768   105893564.352 8       785.809          52.750


  20896047.298   109809520.722 7        43.000    20896048.848    85565869.573 7
      -508.868          43.000
                  20896047.948   109809521.461 8      -653.085          53.750


  21129709.156   111037448.866 7        43.250    21129710.666    86522705.141 7
     -1610.890          43.250
                  21129709.766   111037460.614 8     -2067.303          52.500


  23771864.732   124922003.198 4        28.500    23771865.152    97341824.458 4
     -1390.667          28.500
                  23771861.502   124921990.943 7     -1784.739          44.750
  23771863.592    97341819.263 6     -1390.726          40.750

  20884478.479   111600380.081 7        47.750    20884486.449    86800315.881 6
     -1101.614          41.000
                  20884478.579   111600400.828 8     -1416.382          48.250
                                                                  20884486.409
  86800301.633 7     -1101.590          42.500
  21757970.087   114338983.824 6        39.250    21757974.267    89095329.206 6
     -2209.186          39.250    21757973.297    85383023.403 7     -2117.160
        45.500    21757970.047   114338980.571 8     -2835.145          49.750
  21757974.177    89095321.989 8     -2209.206          49.750

  21422774.944   112577508.453 7        43.000    21422775.374    87722748.744 7
      -417.844          43.000
                  21422774.774   112577508.201 8      -536.235          52.500
  21422775.214    87722755.529 8      -417.839          49.000

  20754038.313   111098058.249 8        48.000    20754044.263    86409618.982 7
      2064.778          46.500
                  20754038.593   111098063.001 8      2654.691          49.000
                                                                  20754044.453
  86409644.735 7      2064.775          47.750
  22393000.282   119703503.931 7        44.500    22393009.592    93102745.805 6
     -2804.741          36.000
                  22393000.342   119703506.665 7     -3606.141          45.750
                                                                  22393007.352
  93102755.536 6     -2804.731          37.500
 14  8 29 20  3  7.0000000  0 22G23G11R12G25R19R17G13R 2R18G 6G 9G14-0.000190281
                                G12G20G 4G32G17R11G 1G31R 3R 1
  22184586.276   116580852.794 6        36.750    22184585.136    90842240.254 6
      2063.677          36.750
                  22184586.556   116580825.541 8      2648.406          48.750


  24306829.983   127733302.709 3        21.250    24306831.383    99532455.474 3
     -3046.277          21.250
                  24306828.543   127733293.466 7     -3909.357          42.500


  21064846.918   112524683.529 7        44.000    21064856.418    87519208.241 7
      2320.824          43.500
                  21064848.538   112524683.277 7      2983.987          44.000
                                                                  21064856.168
  87519189.990 7      2320.833          45.250
  24236500.039   127363674.316 3        21.500    24236502.959    99244421.016 3
       -64.756          21.500    24236505.479    95109237.422 6       -62.023
        36.750    24236499.639   127363691.039 6       -83.015          38.500
  24236504.309    99244423.797 6       -64.711          40.250

  22569538.454   120731833.847 7        45.250    22569545.054    93902541.419 6
      1977.309          40.750
                  22569538.204   120731849.604 7      2542.305          46.500
                                                                  22569546.244
  93902546.149 7      1977.318          42.000
  23131957.842   123783789.401 6        41.250    23131966.112    96276277.706 6
     -3488.627          39.000
                  23131957.162   123783798.133 7     -4485.343          42.000
                                                                  23131967.992
  96276296.457 6     -3488.609          41.000
  24272896.021   127554945.366 3        21.000    24272897.321    99393467.123 3
      2770.693          21.000
                  24272895.691   127555162.081 6      3555.752          40.500


  19295182.476   102962839.921 9        54.000    19295189.466    80082236.637 8
      -653.394          51.000
                  19295182.286   102963262.677 9      -840.074          54.500
                                                                  19295189.366
  80082236.386 8      -653.386          52.000
  21143388.473   112864874.372 8        49.000    21143396.523    87783797.632 7
     -1441.883          45.250
                  21143388.283   112864764.121 8     -1853.830          49.750
                                                                  21143396.483
  87783803.383 7     -1441.872          46.250
  24491060.841   128701403.035 4        25.750    24491065.611   100286809.092 4
      2546.484          25.750    24491066.321    96108185.054 6      2440.354
        37.250    24491060.641   128701398.751 6      3267.945          41.500
  24491065.121   100286811.869 7      2546.466          42.250

  20402333.380   107215087.178 8        48.750    20402335.840    83544244.636 8
       533.275          48.750
                  20402333.530   107215101.925 9       684.380          55.250


  25078315.032   131787550.078 2        14.500    25078313.202   102691621.184 2
     -2778.506          14.500
                  25078317.272   131787554.836 6     -3566.021          38.500


  24983459.625   131288976.621 1         7.250    24983470.155   102303097.380 1
     -1430.830           7.250
                  24983463.655   131288977.387 5     -1836.315          33.750
  24983462.945   102303103.149 4     -1430.896          29.750

  20150702.825   105892762.968 7        45.750    20150703.195    82513863.628 7
       611.872          45.750
                  20150703.855   105892778.709 8       785.224          52.500


  20896171.413   109810174.027 7        43.000    20896173.073    85566378.644 7
      -509.478          43.000
                  20896172.293   109810174.760 8      -653.808          53.500


  21130102.380   111039516.262 7        43.250    21130103.910    86524316.099 7
     -1611.267          43.250
                  21130102.980   111039528.002 8     -2067.743          52.500


  23772202.238   124923788.039 4        28.000    23772203.778    97343215.250 4
     -1391.116          28.000
                  23772200.948   124923775.787 7     -1785.271          44.750
  23772203.738    97343210.031 6     -1391.085          39.750

  20884743.630   111601796.798 7        47.750    20884751.440    86801417.772 6
     -1102.430          41.250
                  20884743.170   111601817.543 8     -1417.422          48.000
                                                                  20884752.090
  86801403.520 7     -1102.426          42.750
  21758509.461   114341819.055 6        39.750    21758513.671    89097538.476 6
     -2209.571          39.750    21758512.891    85385140.621 7     -2117.519
        45.750    21758509.331   114341815.808 8     -2835.616          49.500
  21758513.181    89097531.256 8     -2209.574          49.500

  21422876.983   112578044.909 7        42.500    21422877.003    87723166.757 7
      -418.413          42.500
                  21422876.973   112578044.653 8      -536.962          52.250
  21422877.253    87723173.545 8      -418.422          49.000

  20753542.062   111095403.582 8        48.250    20753548.412    86407554.243 7
      2064.419          47.000
                  20753543.882   111095408.329 8      2654.339          49.000
                                                                  20753548.862
  86407579.991 8      2064.437          48.000
  22393675.245   119707110.003 7        44.750    22393684.395    93105550.526 5
     -2804.969          35.750
                  22393675.175   119707112.753 7     -3606.352          45.750
                                                                  22393681.595
  93105560.245 6     -2804.895          38.500
 14  8 29 20  3  8.0000000  0 22G23G11R12G25R19R17G13R 2R18G 6G 9G14-0.000190210
                                G12G20G 4G32G17R11G 1G31R 3R 1
  22184081.092   116578204.309 6        36.500    22184081.002    90840176.497 6
      2063.464          36.500
                  22184082.272   116578177.061 8      2648.160          48.750


  24307571.981   127737212.037 3        21.250    24307573.631    99535501.653 3
     -3046.249          21.250
                  24307571.491   127737202.790 7     -3909.530          43.000


  21064288.176   112521699.594 7        44.000    21064297.416    87516887.393 7
      2320.470          43.750
                  21064289.386   112521699.340 7      2983.431          44.500
                                                                  21064296.846
  87516869.146 7      2320.471          45.250
  24236513.957   127363757.627 3        21.500    24236518.707    99244485.925 3
       -65.334          21.500    24236521.057    95109299.646 6       -62.768
        37.000    24236515.597   127363774.364 6       -83.879          38.750
  24236519.907    99244488.714 6       -65.418          40.500

  22569063.181   120729291.764 7        45.500    22569069.791    93900564.240 6
      1976.870          41.250
                  22569062.961   120729307.525 7      2541.602          46.750
                                                                  22569069.511
  93900568.973 7      1976.865          42.000
  23132795.510   123788274.630 6        41.250    23132804.420    96279766.218 6
     -3488.711          39.000
                  23132792.480   123788283.372 6     -4485.473          41.750
                                                                  23132806.440
  96279784.962 6     -3488.654          41.000
  24272218.434   127551389.599 3        21.000    24272218.644    99390696.388 3
      2770.563          21.000
                  24272218.924   127551606.287 6      3555.466          40.500


  19295340.053   102963680.049 9        54.000    19295346.893    80082890.074 8
      -653.795          51.250
                  19295339.893   102964102.801 9      -840.609          54.500
                                                                  19295346.933
  80082889.824 8      -653.794          52.250
  21143735.570   112866728.410 8        49.000    21143744.180    87785239.661 7
     -1442.495          45.250
                  21143736.000   112866618.161 8     -1854.650          49.500
                                                                  21143743.780
  87785245.413 7     -1442.502          46.250
  24490438.622   128698135.066 4        25.750    24490441.942   100284262.618 4
      2546.332          25.750    24490444.442    96105744.703 6      2440.145
        37.500    24490439.872   128698130.787 6      3267.700          41.000
  24490444.272   100284265.413 7      2546.221          43.000

  20402203.316   107214402.822 8        48.500    20402205.636    83543711.375 8
       532.896          48.500
                  20402203.696   107214417.569 9       683.893          55.000


  25078993.727   131791116.013 2        14.500    25078994.097   102694399.837 2
     -2778.606          14.500
                  25078996.677   131791120.773 6     -3566.078          38.250


  24983810.440   131290813.131 1         7.250    24983819.660   102304528.515 1
     -1431.475           7.250
                  24983812.970   131290813.971 5     -1837.023          33.250
  24983816.560   102304534.279 5     -1431.350          31.000

  20150553.475   105891977.819 7        45.500    20150553.895    82513251.823 7
       611.457          45.500
                  20150554.145   105891993.561 8       784.718          52.500


  20896296.196   109810828.007 7        42.750    20896297.626    85566888.240 7
      -510.019          42.750
                  20896296.626   109810828.742 8      -654.484          53.500


  21130495.483   111041584.020 7        43.000    21130497.463    86525927.337 7
     -1611.555          43.000
                  21130496.823   111041595.763 8     -2068.144          52.500


  23772542.188   124925573.372 4        28.000    23772543.818    97344606.471 4
     -1391.629          28.000
                  23772541.458   124925561.139 7     -1785.801          44.750
  23772543.168    97344601.217 6     -1391.513          40.250

  20885008.387   111603214.392 7        47.500    20885016.557    86802520.342 6
     -1103.116          41.500
                  20885009.257   111603235.126 7     -1418.263          47.750
                                                                  20885016.277
  86802506.090 7     -1103.117          43.000
  21759049.019   114344654.740 6        40.000    21759053.359    89099748.096 6
     -2209.956          40.000    21759052.679    85387258.176 7     -2117.886
        45.500    21759048.949   114344651.485 8     -2836.098          49.750
  21759053.019    89099740.886 8     -2209.960          49.750

  21422979.136   112578582.024 7        42.500    21422979.416    87723585.295 7
      -418.971          42.500
                  21422979.346   112578581.771 8      -537.670          52.250
  21422979.286    87723592.074 8      -418.973          49.000

  20753046.376   111092749.221 8        48.000    20753052.706    86405489.739 7
      2064.204          46.750
                  20753046.706   111092753.971 8      2653.953          48.750
                                                                  20753052.976
  86405515.487 8      2064.205          48.000
  22394349.674   119710716.237 7        44.750    22394358.304    93108355.376 5
     -2805.060          35.750
                  22394349.364   119710718.986 7     -3606.502          45.750
                                                                  22394354.694
  93108365.112 6     -2805.074          38.250
 14  8 29 20  3  9.0000000  0 22G23G11R12G25R19R17G13R 2R18G 6G 9G14-0.000190139
                                G12G20G 4G32G17R11G 1G31R 3R 1
  22183577.920   116575556.029 6        37.000    22183576.890    90838112.904 6
      2063.675          37.000
                  22183578.210   116575528.778 8      2648.440          48.500


  24308316.010   127741121.393 3        21.750    24308316.330    99538547.892 3
     -3046.109          21.750
                  24308316.910   127741112.125 7     -3909.134          42.750


  21063730.145   112518716.215 7        44.000    21063739.015    87514566.997 7
      2320.401          43.500
                  21063729.425   112518715.958 7      2983.452          44.000
                                                                  21063738.515
  87514548.741 7      2320.452          45.250
  24236532.185   127363841.422 3        22.000    24236535.635    99244551.269 3
       -65.448          22.000    24236536.985    95109362.233 6       -62.628
        36.500    24236531.465   127363858.192 6       -83.859          39.250
  24236537.045    99244554.037 6       -65.348          40.750

  22568588.647   120726750.322 7        45.500    22568594.427    93898587.571 6
      1976.631          41.000
                  22568587.757   120726766.083 7      2541.376          46.500
                                                                  22568594.957
  93898592.306 7      1976.642          42.000
  23133633.760   123792759.973 6        41.000    23133642.820    96283254.819 6
     -3488.445          38.750
                  23133631.770   123792768.736 6     -4485.242          41.750
                                                                  23133644.160
  96283273.574 6     -3488.472          41.000
  24271541.700   127547833.788 3        21.500    24271543.120    99387925.623 3
      2770.924          21.500
                  24271540.890   127548050.504 6      3556.066          40.750


  19295497.554   102964520.637 9        54.000    19295504.584    80083543.864 8
      -653.793          51.000
                  19295497.404   102964943.387 9      -840.585          54.750
                                                                  19295504.894
  80083543.614 8      -653.778          52.250
  21144083.263   112868583.209 8        49.000    21144091.013    87786682.284 7
     -1442.702          44.750
                  21144082.923   112868472.958 8     -1854.942          49.250
                                                                  21144091.583
  87786688.035 7     -1442.702          46.250
  24489818.143   128694867.262 4        26.250    24489820.583   100281716.301 4
      2546.490          26.250    24489822.163    96103304.471 6      2440.415
        37.250    24489817.563   128694863.014 6      3268.027          41.000
  24489821.623   100281719.085 7      2546.470          42.500

  20402073.240   107213718.903 8        48.750    20402075.330    83543178.446 8
       532.969          48.750
                  20402073.350   107213733.648 9       683.979          55.000


  25079671.556   131794681.918 2        14.250    25079672.806   102697178.477 2
     -2778.372          14.250
                  25079674.046   131794686.636 6     -3565.505          38.750


  24984161.564   131292650.205 1         7.250    24984168.664   102305959.938 1
     -1431.436           7.250
                  24984161.404   131292651.033 5     -1837.068          31.250
  24984165.584   102305965.728 5     -1431.611          31.500

  20150404.029   105891193.103 7        45.750    20150404.599    82512640.358 7
       611.491          45.750
                  20150404.899   105891208.851 8       784.764          52.250


  20896420.494   109811482.595 7        42.750    20896422.204    85567398.310 7
      -510.110          42.750
                  20896421.154   109811483.327 8      -654.633          53.250


  21130889.303   111043652.052 7        43.500    21130890.913    86527538.786 7
     -1611.335          43.500
                  21130890.343   111043663.791 8     -2067.922          52.500


  23772882.291   124927359.182 4        28.500    23772883.741    97345997.954 4
     -1391.491          28.500
                  23772881.411   124927346.916 7     -1785.740          44.750
  23772883.151    97345992.725 6     -1391.458          40.250

  20885273.904   111604632.798 7        47.750    20885281.824    86803623.554 6
     -1103.342          41.750
                  20885273.464   111604653.528 7     -1418.569          47.750
                                                                  20885282.604
  86803609.290 7     -1103.323          42.750
  21759588.781   114347490.786 6        39.250    21759592.821    89101957.999 6
     -2209.769          39.250    21759592.061    85389375.994 7     -2117.717
        45.500    21759588.491   114347487.534 8     -2835.935          49.500
  21759592.801    89101950.788 8     -2209.814          49.500

  21423081.401   112579119.736 7        42.750    21423081.761    87724004.293 7
      -419.029          42.750
                  21423081.911   112579119.484 8      -537.748          52.750
  21423081.751    87724011.070 8      -419.029          49.000

  20752550.365   111090095.102 8        48.250    20752557.025    86403425.422 7
      2064.444          47.000
                  20752550.405   111090099.844 8      2654.270          49.000
                                                                  20752556.945
  86403451.173 8      2064.432          48.250
  22395024.632   119714322.588 7        44.750    22395033.422    93111160.306 6
     -2804.772          36.250
                  22395024.352   119714325.342 7     -3606.101          46.000
                                                                  22395035.232
  93111170.049 6     -2804.803          37.750
